{"101":{"stop_id":"101","stop_code":null,"stop_name":"Van Cortlandt Park-242 St","tts_stop_name":null,"stop_desc":null,"stop_lat":40.889248,"stop_lon":-73.898583,"zone_id":null,"stop_url":null,"location_type":1,"parent_station":null,"stop_timezone":null,"wheelchair_boarding":null,"level_id":null,"platform_code":null},"103":{"stop_id":"103","stop_code":null,"stop_name":"238 St","tts_stop_name":null,"stop_desc":null,"stop_lat":40.884667,"stop_lon":-73.90087,"zone_id":null,"stop_url":null,"location_type":1,"parent_station":null,"stop_timezone":null,"wheelchair_boarding":null,"level_id":null,"platform_code":null},"104":{"stop_id":"104","stop_code":null,"stop_name":"231 St","tts_stop_name":null,"stop_desc":null,"stop_lat":40.878856,"stop_lon":-73.904834,"zone_id":null,"stop_url":null,"location_type":1,"parent_station":null,"stop_timezone":null,"wheelchair_boarding":null,"level_id":null,"platform_code":null},"106":{"stop_id":"106","stop_code":null,"stop_name":"Marble Hill-225 St","tts_stop_name":null,"stop_desc":null,"stop_lat":40.874561,"stop_lon":-73.909831,"zone_id":null,"stop_url":null,"location_type":1,"parent_station":null,"stop_timezone":null,"wheelchair_boarding":null,"level_id":null,"platform_code":null},"107":{"stop_id":"107","stop_code":null,"stop_name":"215 St","tts_stop_name":null,"stop_desc":null,"stop_lat":40.869444,"stop_lon":-73.915279,"zone_id":null,"stop_url":null,"location_type":1,"parent_station":null,"stop_timezone":null,"wheelchair_boarding":null,"level_id":null,"platform_code":null},"108":{"stop_id":"108","stop_code":null,"stop_name":"207 St","tts_stop_name":null,"stop_desc":null,"stop_lat":40.864621,"stop_lon":-73.918822,"zone_id":null,"stop_url":null,"location_type":1,"parent_station":null,"stop_timezone":null,"wheelchair_boarding":null,"level_id":null,"platform_code":null},"109":{"stop_id":"109","stop_code":null,"stop_name":"Dyckman St","tts_stop_name":null,"stop_desc":null,"stop_lat":40.860531,"stop_lon":-73.925536,"zone_id":null,"stop_url":null,"location_type":1,"parent_station":null,"stop_timezone":null,"wheelchair_boarding":null,"level_id":null,"platform_code":null},"110":{"stop_id":"110","stop_code":null,"stop_name":"191 St","tts_stop_name":null,"stop_desc":null,"stop_lat":40.855225,"stop_lon":-73.929412,"zone_id":null,"stop_url":null,"location_type":1,"parent_station":null,"stop_timezone":null,"wheelchair_boarding":null,"level_id":null,"platform_code":null},"111":{"stop_id":"111","stop_code":null,"stop_name":"181 St","tts_stop_name":null,"stop_desc":null,"stop_lat":40.849505,"stop_lon":-73.933596,"zone_id":null,"stop_url":null,"location_type":1,"parent_station":null,"stop_timezone":null,"wheelchair_boarding":null,"level_id":null,"platform_code":null},"112":{"stop_id":"112","stop_code":null,"stop_name":"168 St-Washington Hts","tts_stop_name":null,"stop_desc":null,"stop_lat":40.840556,"stop_lon":-73.940133,"zone_id":null,"stop_url":null,"location_type":1,"parent_station":null,"stop_timezone":null,"wheelchair_boarding":null,"level_id":null,"platform_code":null},"113":{"stop_id":"113","stop_code":null,"stop_name":"157 St","tts_stop_name":null,"stop_desc":null,"stop_lat":40.834041,"stop_lon":-73.94489,"zone_id":null,"stop_url":null,"location_type":1,"parent_station":null,"stop_timezone":null,"wheelchair_boarding":null,"level_id":null,"platform_code":null},"114":{"stop_id":"114","stop_code":null,"stop_name":"145 St","tts_stop_name":null,"stop_desc":null,"stop_lat":40.826551,"stop_lon":-73.95036,"zone_id":null,"stop_url":null,"location_type":1,"parent_station":null,"stop_timezone":null,"wheelchair_boarding":null,"level_id":null,"platform_code":null},"115":{"stop_id":"115","stop_code":null,"stop_name":"137 St-City College","tts_stop_name":null,"stop_desc":null,"stop_lat":40.822008,"stop_lon":-73.953676,"zone_id":null,"stop_url":null,"location_type":1,"parent_station":null,"stop_timezone":null,"wheelchair_boarding":null,"level_id":null,"platform_code":null},"116":{"stop_id":"116","stop_code":null,"stop_name":"125 St","tts_stop_name":null,"stop_desc":null,"stop_lat":40.815581,"stop_lon":-73.958372,"zone_id":null,"stop_url":null,"location_type":1,"parent_station":null,"stop_timezone":null,"wheelchair_boarding":null,"level_id":null,"platform_code":null},"117":{"stop_id":"117","stop_code":null,"stop_name":"116 St-Columbia University","tts_stop_name":null,"stop_desc":null,"stop_lat":40.807722,"stop_lon":-73.96411,"zone_id":null,"stop_url":null,"location_type":1,"parent_station":null,"stop_timezone":null,"wheelchair_boarding":null,"level_id":null,"platform_code":null},"118":{"stop_id":"118","stop_code":null,"stop_name":"Cathedral Pkwy (110 St)","tts_stop_name":null,"stop_desc":null,"stop_lat":40.803967,"stop_lon":-73.966847,"zone_id":null,"stop_url":null,"location_type":1,"parent_station":null,"stop_timezone":null,"wheelchair_boarding":null,"level_id":null,"platform_code":null},"119":{"stop_id":"119","stop_code":null,"stop_name":"103 St","tts_stop_name":null,"stop_desc":null,"stop_lat":40.799446,"stop_lon":-73.968379,"zone_id":null,"stop_url":null,"location_type":1,"parent_station":null,"stop_timezone":null,"wheelchair_boarding":null,"level_id":null,"platform_code":null},"120":{"stop_id":"120","stop_code":null,"stop_name":"96 St","tts_stop_name":null,"stop_desc":null,"stop_lat":40.793919,"stop_lon":-73.972323,"zone_id":null,"stop_url":null,"location_type":1,"parent_station":null,"stop_timezone":null,"wheelchair_boarding":null,"level_id":null,"platform_code":null},"121":{"stop_id":"121","stop_code":null,"stop_name":"86 St","tts_stop_name":null,"stop_desc":null,"stop_lat":40.788644,"stop_lon":-73.976218,"zone_id":null,"stop_url":null,"location_type":1,"parent_station":null,"stop_timezone":null,"wheelchair_boarding":null,"level_id":null,"platform_code":null},"122":{"stop_id":"122","stop_code":null,"stop_name":"79 St","tts_stop_name":null,"stop_desc":null,"stop_lat":40.783934,"stop_lon":-73.979917,"zone_id":null,"stop_url":null,"location_type":1,"parent_station":null,"stop_timezone":null,"wheelchair_boarding":null,"level_id":null,"platform_code":null},"123":{"stop_id":"123","stop_code":null,"stop_name":"72 St","tts_stop_name":null,"stop_desc":null,"stop_lat":40.778453,"stop_lon":-73.98197,"zone_id":null,"stop_url":null,"location_type":1,"parent_station":null,"stop_timezone":null,"wheelchair_boarding":null,"level_id":null,"platform_code":null},"124":{"stop_id":"124","stop_code":null,"stop_name":"66 St-Lincoln Center","tts_stop_name":null,"stop_desc":null,"stop_lat":40.77344,"stop_lon":-73.982209,"zone_id":null,"stop_url":null,"location_type":1,"parent_station":null,"stop_timezone":null,"wheelchair_boarding":null,"level_id":null,"platform_code":null},"125":{"stop_id":"125","stop_code":null,"stop_name":"59 St-Columbus Circle","tts_stop_name":null,"stop_desc":null,"stop_lat":40.768247,"stop_lon":-73.981929,"zone_id":null,"stop_url":null,"location_type":1,"parent_station":null,"stop_timezone":null,"wheelchair_boarding":null,"level_id":null,"platform_code":null},"126":{"stop_id":"126","stop_code":null,"stop_name":"50 St","tts_stop_name":null,"stop_desc":null,"stop_lat":40.761728,"stop_lon":-73.983849,"zone_id":null,"stop_url":null,"location_type":1,"parent_station":null,"stop_timezone":null,"wheelchair_boarding":null,"level_id":null,"platform_code":null},"127":{"stop_id":"127","stop_code":null,"stop_name":"Times Sq-42 St","tts_stop_name":null,"stop_desc":null,"stop_lat":40.75529,"stop_lon":-73.987495,"zone_id":null,"stop_url":null,"location_type":1,"parent_station":null,"stop_timezone":null,"wheelchair_boarding":null,"level_id":null,"platform_code":null},"128":{"stop_id":"128","stop_code":null,"stop_name":"34 St-Penn Station","tts_stop_name":null,"stop_desc":null,"stop_lat":40.750373,"stop_lon":-73.991057,"zone_id":null,"stop_url":null,"location_type":1,"parent_station":null,"stop_timezone":null,"wheelchair_boarding":null,"level_id":null,"platform_code":null},"129":{"stop_id":"129","stop_code":null,"stop_name":"28 St","tts_stop_name":null,"stop_desc":null,"stop_lat":40.747215,"stop_lon":-73.993365,"zone_id":null,"stop_url":null,"location_type":1,"parent_station":null,"stop_timezone":null,"wheelchair_boarding":null,"level_id":null,"platform_code":null},"130":{"stop_id":"130","stop_code":null,"stop_name":"23 St","tts_stop_name":null,"stop_desc":null,"stop_lat":40.744081,"stop_lon":-73.995657,"zone_id":null,"stop_url":null,"location_type":1,"parent_station":null,"stop_timezone":null,"wheelchair_boarding":null,"level_id":null,"platform_code":null},"131":{"stop_id":"131","stop_code":null,"stop_name":"18 St","tts_stop_name":null,"stop_desc":null,"stop_lat":40.74104,"stop_lon":-73.997871,"zone_id":null,"stop_url":null,"location_type":1,"parent_station":null,"stop_timezone":null,"wheelchair_boarding":null,"level_id":null,"platform_code":null},"132":{"stop_id":"132","stop_code":null,"stop_name":"14 St","tts_stop_name":null,"stop_desc":null,"stop_lat":40.737826,"stop_lon":-74.000201,"zone_id":null,"stop_url":null,"location_type":1,"parent_station":null,"stop_timezone":null,"wheelchair_boarding":null,"level_id":null,"platform_code":null},"133":{"stop_id":"133","stop_code":null,"stop_name":"Christopher St-Sheridan Sq","tts_stop_name":null,"stop_desc":null,"stop_lat":40.733422,"stop_lon":-74.002906,"zone_id":null,"stop_url":null,"location_type":1,"parent_station":null,"stop_timezone":null,"wheelchair_boarding":null,"level_id":null,"platform_code":null},"134":{"stop_id":"134","stop_code":null,"stop_name":"Houston St","tts_stop_name":null,"stop_desc":null,"stop_lat":40.728251,"stop_lon":-74.005367,"zone_id":null,"stop_url":null,"location_type":1,"parent_station":null,"stop_timezone":null,"wheelchair_boarding":null,"level_id":null,"platform_code":null},"135":{"stop_id":"135","stop_code":null,"stop_name":"Canal St","tts_stop_name":null,"stop_desc":null,"stop_lat":40.722854,"stop_lon":-74.006277,"zone_id":null,"stop_url":null,"location_type":1,"parent_station":null,"stop_timezone":null,"wheelchair_boarding":null,"level_id":null,"platform_code":null},"136":{"stop_id":"136","stop_code":null,"stop_name":"Franklin St","tts_stop_name":null,"stop_desc":null,"stop_lat":40.719318,"stop_lon":-74.006886,"zone_id":null,"stop_url":null,"location_type":1,"parent_station":null,"stop_timezone":null,"wheelchair_boarding":null,"level_id":null,"platform_code":null},"137":{"stop_id":"137","stop_code":null,"stop_name":"Chambers St","tts_stop_name":null,"stop_desc":null,"stop_lat":40.715478,"stop_lon":-74.009266,"zone_id":null,"stop_url":null,"location_type":1,"parent_station":null,"stop_timezone":null,"wheelchair_boarding":null,"level_id":null,"platform_code":null},"138":{"stop_id":"138","stop_code":null,"stop_name":"WTC Cortlandt","tts_stop_name":null,"stop_desc":null,"stop_lat":40.711835,"stop_lon":-74.012188,"zone_id":null,"stop_url":null,"location_type":1,"parent_station":null,"stop_timezone":null,"wheelchair_boarding":null,"level_id":null,"platform_code":null},"139":{"stop_id":"139","stop_code":null,"stop_name":"Rector St","tts_stop_name":null,"stop_desc":null,"stop_lat":40.707513,"stop_lon":-74.013783,"zone_id":null,"stop_url":null,"location_type":1,"parent_station":null,"stop_timezone":null,"wheelchair_boarding":null,"level_id":null,"platform_code":null},"140":{"stop_id":"140","stop_code":null,"stop_name":"South Ferry Loop","tts_stop_name":null,"stop_desc":null,"stop_lat":40.701411,"stop_lon":-74.013205,"zone_id":null,"stop_url":null,"location_type":1,"parent_station":null,"stop_timezone":null,"wheelchair_boarding":null,"level_id":null,"platform_code":null},"142":{"stop_id":"142","stop_code":null,"stop_name":"South Ferry","tts_stop_name":null,"stop_desc":null,"stop_lat":40.702068,"stop_lon":-74.013664,"zone_id":null,"stop_url":null,"location_type":1,"parent_station":null,"stop_timezone":null,"wheelchair_boarding":null,"level_id":null,"platform_code":null},"201":{"stop_id":"201","stop_code":null,"stop_name":"Wakefield-241 St","tts_stop_name":null,"stop_desc":null,"stop_lat":40.903125,"stop_lon":-73.85062,"zone_id":null,"stop_url":null,"location_type":1,"parent_station":null,"stop_timezone":null,"wheelchair_boarding":null,"level_id":null,"platform_code":null},"204":{"stop_id":"204","stop_code":null,"stop_name":"Nereid Av","tts_stop_name":null,"stop_desc":null,"stop_lat":40.898379,"stop_lon":-73.854376,"zone_id":null,"stop_url":null,"location_type":1,"parent_station":null,"stop_timezone":null,"wheelchair_boarding":null,"level_id":null,"platform_code":null},"205":{"stop_id":"205","stop_code":null,"stop_name":"233 St","tts_stop_name":null,"stop_desc":null,"stop_lat":40.893193,"stop_lon":-73.857473,"zone_id":null,"stop_url":null,"location_type":1,"parent_station":null,"stop_timezone":null,"wheelchair_boarding":null,"level_id":null,"platform_code":null},"206":{"stop_id":"206","stop_code":null,"stop_name":"225 St","tts_stop_name":null,"stop_desc":null,"stop_lat":40.888022,"stop_lon":-73.860341,"zone_id":null,"stop_url":null,"location_type":1,"parent_station":null,"stop_timezone":null,"wheelchair_boarding":null,"level_id":null,"platform_code":null},"207":{"stop_id":"207","stop_code":null,"stop_name":"219 St","tts_stop_name":null,"stop_desc":null,"stop_lat":40.883895,"stop_lon":-73.862633,"zone_id":null,"stop_url":null,"location_type":1,"parent_station":null,"stop_timezone":null,"wheelchair_boarding":null,"level_id":null,"platform_code":null},"208":{"stop_id":"208","stop_code":null,"stop_name":"Gun Hill Rd","tts_stop_name":null,"stop_desc":null,"stop_lat":40.87785,"stop_lon":-73.866256,"zone_id":null,"stop_url":null,"location_type":1,"parent_station":null,"stop_timezone":null,"wheelchair_boarding":null,"level_id":null,"platform_code":null},"209":{"stop_id":"209","stop_code":null,"stop_name":"Burke Av","tts_stop_name":null,"stop_desc":null,"stop_lat":40.871356,"stop_lon":-73.867164,"zone_id":null,"stop_url":null,"location_type":1,"parent_station":null,"stop_timezone":null,"wheelchair_boarding":null,"level_id":null,"platform_code":null},"210":{"stop_id":"210","stop_code":null,"stop_name":"Allerton Av","tts_stop_name":null,"stop_desc":null,"stop_lat":40.865462,"stop_lon":-73.867352,"zone_id":null,"stop_url":null,"location_type":1,"parent_station":null,"stop_timezone":null,"wheelchair_boarding":null,"level_id":null,"platform_code":null},"211":{"stop_id":"211","stop_code":null,"stop_name":"Pelham Pkwy","tts_stop_name":null,"stop_desc":null,"stop_lat":40.857192,"stop_lon":-73.867615,"zone_id":null,"stop_url":null,"location_type":1,"parent_station":null,"stop_timezone":null,"wheelchair_boarding":null,"level_id":null,"platform_code":null},"212":{"stop_id":"212","stop_code":null,"stop_name":"Bronx Park East","tts_stop_name":null,"stop_desc":null,"stop_lat":40.848828,"stop_lon":-73.868457,"zone_id":null,"stop_url":null,"location_type":1,"parent_station":null,"stop_timezone":null,"wheelchair_boarding":null,"level_id":null,"platform_code":null},"213":{"stop_id":"213","stop_code":null,"stop_name":"E 180 St","tts_stop_name":null,"stop_desc":null,"stop_lat":40.841894,"stop_lon":-73.873488,"zone_id":null,"stop_url":null,"location_type":1,"parent_station":null,"stop_timezone":null,"wheelchair_boarding":null,"level_id":null,"platform_code":null},"214":{"stop_id":"214","stop_code":null,"stop_name":"West Farms Sq-E Tremont Av","tts_stop_name":null,"stop_desc":null,"stop_lat":40.840295,"stop_lon":-73.880049,"zone_id":null,"stop_url":null,"location_type":1,"parent_station":null,"stop_timezone":null,"wheelchair_boarding":null,"level_id":null,"platform_code":null},"215":{"stop_id":"215","stop_code":null,"stop_name":"174 St","tts_stop_name":null,"stop_desc":null,"stop_lat":40.837288,"stop_lon":-73.887734,"zone_id":null,"stop_url":null,"location_type":1,"parent_station":null,"stop_timezone":null,"wheelchair_boarding":null,"level_id":null,"platform_code":null},"216":{"stop_id":"216","stop_code":null,"stop_name":"Freeman St","tts_stop_name":null,"stop_desc":null,"stop_lat":40.829993,"stop_lon":-73.891865,"zone_id":null,"stop_url":null,"location_type":1,"parent_station":null,"stop_timezone":null,"wheelchair_boarding":null,"level_id":null,"platform_code":null},"217":{"stop_id":"217","stop_code":null,"stop_name":"Simpson St","tts_stop_name":null,"stop_desc":null,"stop_lat":40.824073,"stop_lon":-73.893064,"zone_id":null,"stop_url":null,"location_type":1,"parent_station":null,"stop_timezone":null,"wheelchair_boarding":null,"level_id":null,"platform_code":null},"218":{"stop_id":"218","stop_code":null,"stop_name":"Intervale Av","tts_stop_name":null,"stop_desc":null,"stop_lat":40.822181,"stop_lon":-73.896736,"zone_id":null,"stop_url":null,"location_type":1,"parent_station":null,"stop_timezone":null,"wheelchair_boarding":null,"level_id":null,"platform_code":null},"219":{"stop_id":"219","stop_code":null,"stop_name":"Prospect Av","tts_stop_name":null,"stop_desc":null,"stop_lat":40.819585,"stop_lon":-73.90177,"zone_id":null,"stop_url":null,"location_type":1,"parent_station":null,"stop_timezone":null,"wheelchair_boarding":null,"level_id":null,"platform_code":null},"220":{"stop_id":"220","stop_code":null,"stop_name":"Jackson Av","tts_stop_name":null,"stop_desc":null,"stop_lat":40.81649,"stop_lon":-73.907807,"zone_id":null,"stop_url":null,"location_type":1,"parent_station":null,"stop_timezone":null,"wheelchair_boarding":null,"level_id":null,"platform_code":null},"221":{"stop_id":"221","stop_code":null,"stop_name":"3 Av-149 St","tts_stop_name":null,"stop_desc":null,"stop_lat":40.816109,"stop_lon":-73.917757,"zone_id":null,"stop_url":null,"location_type":1,"parent_station":null,"stop_timezone":null,"wheelchair_boarding":null,"level_id":null,"platform_code":null},"222":{"stop_id":"222","stop_code":null,"stop_name":"149 St-Grand Concourse","tts_stop_name":null,"stop_desc":null,"stop_lat":40.81841,"stop_lon":-73.926718,"zone_id":null,"stop_url":null,"location_type":1,"parent_station":null,"stop_timezone":null,"wheelchair_boarding":null,"level_id":null,"platform_code":null},"224":{"stop_id":"224","stop_code":null,"stop_name":"135 St","tts_stop_name":null,"stop_desc":null,"stop_lat":40.814229,"stop_lon":-73.94077,"zone_id":null,"stop_url":null,"location_type":1,"parent_station":null,"stop_timezone":null,"wheelchair_boarding":null,"level_id":null,"platform_code":null},"225":{"stop_id":"225","stop_code":null,"stop_name":"125 St","tts_stop_name":null,"stop_desc":null,"stop_lat":40.807754,"stop_lon":-73.945495,"zone_id":null,"stop_url":null,"location_type":1,"parent_station":null,"stop_timezone":null,"wheelchair_boarding":null,"level_id":null,"platform_code":null},"226":{"stop_id":"226","stop_code":null,"stop_name":"116 St","tts_stop_name":null,"stop_desc":null,"stop_lat":40.802098,"stop_lon":-73.949625,"zone_id":null,"stop_url":null,"location_type":1,"parent_station":null,"stop_timezone":null,"wheelchair_boarding":null,"level_id":null,"platform_code":null},"227":{"stop_id":"227","stop_code":null,"stop_name":"Central Park North (110 St)","tts_stop_name":null,"stop_desc":null,"stop_lat":40.799075,"stop_lon":-73.951822,"zone_id":null,"stop_url":null,"location_type":1,"parent_station":null,"stop_timezone":null,"wheelchair_boarding":null,"level_id":null,"platform_code":null},"228":{"stop_id":"228","stop_code":null,"stop_name":"Park Place","tts_stop_name":null,"stop_desc":null,"stop_lat":40.713051,"stop_lon":-74.008811,"zone_id":null,"stop_url":null,"location_type":1,"parent_station":null,"stop_timezone":null,"wheelchair_boarding":null,"level_id":null,"platform_code":null},"229":{"stop_id":"229","stop_code":null,"stop_name":"Fulton St","tts_stop_name":null,"stop_desc":null,"stop_lat":40.709416,"stop_lon":-74.006571,"zone_id":null,"stop_url":null,"location_type":1,"parent_station":null,"stop_timezone":null,"wheelchair_boarding":null,"level_id":null,"platform_code":null},"230":{"stop_id":"230","stop_code":null,"stop_name":"Wall St","tts_stop_name":null,"stop_desc":null,"stop_lat":40.706821,"stop_lon":-74.0091,"zone_id":null,"stop_url":null,"location_type":1,"parent_station":null,"stop_timezone":null,"wheelchair_boarding":null,"level_id":null,"platform_code":null},"231":{"stop_id":"231","stop_code":null,"stop_name":"Clark St","tts_stop_name":null,"stop_desc":null,"stop_lat":40.697466,"stop_lon":-73.993086,"zone_id":null,"stop_url":null,"location_type":1,"parent_station":null,"stop_timezone":null,"wheelchair_boarding":null,"level_id":null,"platform_code":null},"232":{"stop_id":"232","stop_code":null,"stop_name":"Borough Hall","tts_stop_name":null,"stop_desc":null,"stop_lat":40.693219,"stop_lon":-73.989998,"zone_id":null,"stop_url":null,"location_type":1,"parent_station":null,"stop_timezone":null,"wheelchair_boarding":null,"level_id":null,"platform_code":null},"233":{"stop_id":"233","stop_code":null,"stop_name":"Hoyt St","tts_stop_name":null,"stop_desc":null,"stop_lat":40.690545,"stop_lon":-73.985065,"zone_id":null,"stop_url":null,"location_type":1,"parent_station":null,"stop_timezone":null,"wheelchair_boarding":null,"level_id":null,"platform_code":null},"234":{"stop_id":"234","stop_code":null,"stop_name":"Nevins St","tts_stop_name":null,"stop_desc":null,"stop_lat":40.688246,"stop_lon":-73.980492,"zone_id":null,"stop_url":null,"location_type":1,"parent_station":null,"stop_timezone":null,"wheelchair_boarding":null,"level_id":null,"platform_code":null},"235":{"stop_id":"235","stop_code":null,"stop_name":"Atlantic Av-Barclays Ctr","tts_stop_name":null,"stop_desc":null,"stop_lat":40.684359,"stop_lon":-73.977666,"zone_id":null,"stop_url":null,"location_type":1,"parent_station":null,"stop_timezone":null,"wheelchair_boarding":null,"level_id":null,"platform_code":null},"236":{"stop_id":"236","stop_code":null,"stop_name":"Bergen St","tts_stop_name":null,"stop_desc":null,"stop_lat":40.680829,"stop_lon":-73.975098,"zone_id":null,"stop_url":null,"location_type":1,"parent_station":null,"stop_timezone":null,"wheelchair_boarding":null,"level_id":null,"platform_code":null},"237":{"stop_id":"237","stop_code":null,"stop_name":"Grand Army Plaza","tts_stop_name":null,"stop_desc":null,"stop_lat":40.675235,"stop_lon":-73.971046,"zone_id":null,"stop_url":null,"location_type":1,"parent_station":null,"stop_timezone":null,"wheelchair_boarding":null,"level_id":null,"platform_code":null},"238":{"stop_id":"238","stop_code":null,"stop_name":"Eastern Pkwy-Brooklyn Museum","tts_stop_name":null,"stop_desc":null,"stop_lat":40.671987,"stop_lon":-73.964375,"zone_id":null,"stop_url":null,"location_type":1,"parent_station":null,"stop_timezone":null,"wheelchair_boarding":null,"level_id":null,"platform_code":null},"239":{"stop_id":"239","stop_code":null,"stop_name":"Franklin Av-Medgar Evers College","tts_stop_name":null,"stop_desc":null,"stop_lat":40.670682,"stop_lon":-73.958131,"zone_id":null,"stop_url":null,"location_type":1,"parent_station":null,"stop_timezone":null,"wheelchair_boarding":null,"level_id":null,"platform_code":null},"241":{"stop_id":"241","stop_code":null,"stop_name":"President St-Medgar Evers College","tts_stop_name":null,"stop_desc":null,"stop_lat":40.667883,"stop_lon":-73.950683,"zone_id":null,"stop_url":null,"location_type":1,"parent_station":null,"stop_timezone":null,"wheelchair_boarding":null,"level_id":null,"platform_code":null},"242":{"stop_id":"242","stop_code":null,"stop_name":"Sterling St","tts_stop_name":null,"stop_desc":null,"stop_lat":40.662742,"stop_lon":-73.95085,"zone_id":null,"stop_url":null,"location_type":1,"parent_station":null,"stop_timezone":null,"wheelchair_boarding":null,"level_id":null,"platform_code":null},"243":{"stop_id":"243","stop_code":null,"stop_name":"Winthrop St","tts_stop_name":null,"stop_desc":null,"stop_lat":40.656652,"stop_lon":-73.9502,"zone_id":null,"stop_url":null,"location_type":1,"parent_station":null,"stop_timezone":null,"wheelchair_boarding":null,"level_id":null,"platform_code":null},"244":{"stop_id":"244","stop_code":null,"stop_name":"Church Av","tts_stop_name":null,"stop_desc":null,"stop_lat":40.650843,"stop_lon":-73.949575,"zone_id":null,"stop_url":null,"location_type":1,"parent_station":null,"stop_timezone":null,"wheelchair_boarding":null,"level_id":null,"platform_code":null},"245":{"stop_id":"245","stop_code":null,"stop_name":"Beverly Rd","tts_stop_name":null,"stop_desc":null,"stop_lat":40.645098,"stop_lon":-73.948959,"zone_id":null,"stop_url":null,"location_type":1,"parent_station":null,"stop_timezone":null,"wheelchair_boarding":null,"level_id":null,"platform_code":null},"246":{"stop_id":"246","stop_code":null,"stop_name":"Newkirk Av-Little Haiti","tts_stop_name":null,"stop_desc":null,"stop_lat":40.639967,"stop_lon":-73.948411,"zone_id":null,"stop_url":null,"location_type":1,"parent_station":null,"stop_timezone":null,"wheelchair_boarding":null,"level_id":null,"platform_code":null},"247":{"stop_id":"247","stop_code":null,"stop_name":"Flatbush Av-Brooklyn College","tts_stop_name":null,"stop_desc":null,"stop_lat":40.632836,"stop_lon":-73.947642,"zone_id":null,"stop_url":null,"location_type":1,"parent_station":null,"stop_timezone":null,"wheelchair_boarding":null,"level_id":null,"platform_code":null},"248":{"stop_id":"248","stop_code":null,"stop_name":"Nostrand Av","tts_stop_name":null,"stop_desc":null,"stop_lat":40.669847,"stop_lon":-73.950466,"zone_id":null,"stop_url":null,"location_type":1,"parent_station":null,"stop_timezone":null,"wheelchair_boarding":null,"level_id":null,"platform_code":null},"249":{"stop_id":"249","stop_code":null,"stop_name":"Kingston Av","tts_stop_name":null,"stop_desc":null,"stop_lat":40.669399,"stop_lon":-73.942161,"zone_id":null,"stop_url":null,"location_type":1,"parent_station":null,"stop_timezone":null,"wheelchair_boarding":null,"level_id":null,"platform_code":null},"250":{"stop_id":"250","stop_code":null,"stop_name":"Crown Hts-Utica Av","tts_stop_name":null,"stop_desc":null,"stop_lat":40.668897,"stop_lon":-73.932942,"zone_id":null,"stop_url":null,"location_type":1,"parent_station":null,"stop_timezone":null,"wheelchair_boarding":null,"level_id":null,"platform_code":null},"251":{"stop_id":"251","stop_code":null,"stop_name":"Sutter Av-Rutland Rd","tts_stop_name":null,"stop_desc":null,"stop_lat":40.664717,"stop_lon":-73.92261,"zone_id":null,"stop_url":null,"location_type":1,"parent_station":null,"stop_timezone":null,"wheelchair_boarding":null,"level_id":null,"platform_code":null},"252":{"stop_id":"252","stop_code":null,"stop_name":"Saratoga Av","tts_stop_name":null,"stop_desc":null,"stop_lat":40.661453,"stop_lon":-73.916327,"zone_id":null,"stop_url":null,"location_type":1,"parent_station":null,"stop_timezone":null,"wheelchair_boarding":null,"level_id":null,"platform_code":null},"253":{"stop_id":"253","stop_code":null,"stop_name":"Rockaway Av","tts_stop_name":null,"stop_desc":null,"stop_lat":40.662549,"stop_lon":-73.908946,"zone_id":null,"stop_url":null,"location_type":1,"parent_station":null,"stop_timezone":null,"wheelchair_boarding":null,"level_id":null,"platform_code":null},"254":{"stop_id":"254","stop_code":null,"stop_name":"Junius St","tts_stop_name":null,"stop_desc":null,"stop_lat":40.663515,"stop_lon":-73.902447,"zone_id":null,"stop_url":null,"location_type":1,"parent_station":null,"stop_timezone":null,"wheelchair_boarding":null,"level_id":null,"platform_code":null},"255":{"stop_id":"255","stop_code":null,"stop_name":"Pennsylvania Av","tts_stop_name":null,"stop_desc":null,"stop_lat":40.664635,"stop_lon":-73.894895,"zone_id":null,"stop_url":null,"location_type":1,"parent_station":null,"stop_timezone":null,"wheelchair_boarding":null,"level_id":null,"platform_code":null},"256":{"stop_id":"256","stop_code":null,"stop_name":"Van Siclen Av","tts_stop_name":null,"stop_desc":null,"stop_lat":40.665449,"stop_lon":-73.889395,"zone_id":null,"stop_url":null,"location_type":1,"parent_station":null,"stop_timezone":null,"wheelchair_boarding":null,"level_id":null,"platform_code":null},"257":{"stop_id":"257","stop_code":null,"stop_name":"New Lots Av","tts_stop_name":null,"stop_desc":null,"stop_lat":40.666235,"stop_lon":-73.884079,"zone_id":null,"stop_url":null,"location_type":1,"parent_station":null,"stop_timezone":null,"wheelchair_boarding":null,"level_id":null,"platform_code":null},"301":{"stop_id":"301","stop_code":null,"stop_name":"Harlem-148 St","tts_stop_name":null,"stop_desc":null,"stop_lat":40.82388,"stop_lon":-73.93647,"zone_id":null,"stop_url":null,"location_type":1,"parent_station":null,"stop_timezone":null,"wheelchair_boarding":null,"level_id":null,"platform_code":null},"302":{"stop_id":"302","stop_code":null,"stop_name":"145 St","tts_stop_name":null,"stop_desc":null,"stop_lat":40.820421,"stop_lon":-73.936245,"zone_id":null,"stop_url":null,"location_type":1,"parent_station":null,"stop_timezone":null,"wheelchair_boarding":null,"level_id":null,"platform_code":null},"401":{"stop_id":"401","stop_code":null,"stop_name":"Woodlawn","tts_stop_name":null,"stop_desc":null,"stop_lat":40.886037,"stop_lon":-73.878751,"zone_id":null,"stop_url":null,"location_type":1,"parent_station":null,"stop_timezone":null,"wheelchair_boarding":null,"level_id":null,"platform_code":null},"402":{"stop_id":"402","stop_code":null,"stop_name":"Mosholu Pkwy","tts_stop_name":null,"stop_desc":null,"stop_lat":40.87975,"stop_lon":-73.884655,"zone_id":null,"stop_url":null,"location_type":1,"parent_station":null,"stop_timezone":null,"wheelchair_boarding":null,"level_id":null,"platform_code":null},"405":{"stop_id":"405","stop_code":null,"stop_name":"Bedford Park Blvd-Lehman College","tts_stop_name":null,"stop_desc":null,"stop_lat":40.873412,"stop_lon":-73.890064,"zone_id":null,"stop_url":null,"location_type":1,"parent_station":null,"stop_timezone":null,"wheelchair_boarding":null,"level_id":null,"platform_code":null},"406":{"stop_id":"406","stop_code":null,"stop_name":"Kingsbridge Rd","tts_stop_name":null,"stop_desc":null,"stop_lat":40.86776,"stop_lon":-73.897174,"zone_id":null,"stop_url":null,"location_type":1,"parent_station":null,"stop_timezone":null,"wheelchair_boarding":null,"level_id":null,"platform_code":null},"407":{"stop_id":"407","stop_code":null,"stop_name":"Fordham Rd","tts_stop_name":null,"stop_desc":null,"stop_lat":40.862803,"stop_lon":-73.901034,"zone_id":null,"stop_url":null,"location_type":1,"parent_station":null,"stop_timezone":null,"wheelchair_boarding":null,"level_id":null,"platform_code":null},"408":{"stop_id":"408","stop_code":null,"stop_name":"183 St","tts_stop_name":null,"stop_desc":null,"stop_lat":40.858407,"stop_lon":-73.903879,"zone_id":null,"stop_url":null,"location_type":1,"parent_station":null,"stop_timezone":null,"wheelchair_boarding":null,"level_id":null,"platform_code":null},"409":{"stop_id":"409","stop_code":null,"stop_name":"Burnside Av","tts_stop_name":null,"stop_desc":null,"stop_lat":40.853453,"stop_lon":-73.907684,"zone_id":null,"stop_url":null,"location_type":1,"parent_station":null,"stop_timezone":null,"wheelchair_boarding":null,"level_id":null,"platform_code":null},"410":{"stop_id":"410","stop_code":null,"stop_name":"176 St","tts_stop_name":null,"stop_desc":null,"stop_lat":40.84848,"stop_lon":-73.911794,"zone_id":null,"stop_url":null,"location_type":1,"parent_station":null,"stop_timezone":null,"wheelchair_boarding":null,"level_id":null,"platform_code":null},"411":{"stop_id":"411","stop_code":null,"stop_name":"Mt Eden Av","tts_stop_name":null,"stop_desc":null,"stop_lat":40.844434,"stop_lon":-73.914685,"zone_id":null,"stop_url":null,"location_type":1,"parent_station":null,"stop_timezone":null,"wheelchair_boarding":null,"level_id":null,"platform_code":null},"412":{"stop_id":"412","stop_code":null,"stop_name":"170 St","tts_stop_name":null,"stop_desc":null,"stop_lat":40.840075,"stop_lon":-73.917791,"zone_id":null,"stop_url":null,"location_type":1,"parent_station":null,"stop_timezone":null,"wheelchair_boarding":null,"level_id":null,"platform_code":null},"413":{"stop_id":"413","stop_code":null,"stop_name":"167 St","tts_stop_name":null,"stop_desc":null,"stop_lat":40.835537,"stop_lon":-73.9214,"zone_id":null,"stop_url":null,"location_type":1,"parent_station":null,"stop_timezone":null,"wheelchair_boarding":null,"level_id":null,"platform_code":null},"414":{"stop_id":"414","stop_code":null,"stop_name":"161 St-Yankee Stadium","tts_stop_name":null,"stop_desc":null,"stop_lat":40.827994,"stop_lon":-73.925831,"zone_id":null,"stop_url":null,"location_type":1,"parent_station":null,"stop_timezone":null,"wheelchair_boarding":null,"level_id":null,"platform_code":null},"415":{"stop_id":"415","stop_code":null,"stop_name":"149 St-Grand Concourse","tts_stop_name":null,"stop_desc":null,"stop_lat":40.818375,"stop_lon":-73.927351,"zone_id":null,"stop_url":null,"location_type":1,"parent_station":null,"stop_timezone":null,"wheelchair_boarding":null,"level_id":null,"platform_code":null},"416":{"stop_id":"416","stop_code":null,"stop_name":"138 St-Grand Concourse","tts_stop_name":null,"stop_desc":null,"stop_lat":40.813224,"stop_lon":-73.929849,"zone_id":null,"stop_url":null,"location_type":1,"parent_station":null,"stop_timezone":null,"wheelchair_boarding":null,"level_id":null,"platform_code":null},"418":{"stop_id":"418","stop_code":null,"stop_name":"Fulton St","tts_stop_name":null,"stop_desc":null,"stop_lat":40.710368,"stop_lon":-74.009509,"zone_id":null,"stop_url":null,"location_type":1,"parent_station":null,"stop_timezone":null,"wheelchair_boarding":null,"level_id":null,"platform_code":null},"419":{"stop_id":"419","stop_code":null,"stop_name":"Wall St","tts_stop_name":null,"stop_desc":null,"stop_lat":40.707557,"stop_lon":-74.011862,"zone_id":null,"stop_url":null,"location_type":1,"parent_station":null,"stop_timezone":null,"wheelchair_boarding":null,"level_id":null,"platform_code":null},"420":{"stop_id":"420","stop_code":null,"stop_name":"Bowling Green","tts_stop_name":null,"stop_desc":null,"stop_lat":40.704817,"stop_lon":-74.014065,"zone_id":null,"stop_url":null,"location_type":1,"parent_station":null,"stop_timezone":null,"wheelchair_boarding":null,"level_id":null,"platform_code":null},"423":{"stop_id":"423","stop_code":null,"stop_name":"Borough Hall","tts_stop_name":null,"stop_desc":null,"stop_lat":40.692404,"stop_lon":-73.990151,"zone_id":null,"stop_url":null,"location_type":1,"parent_station":null,"stop_timezone":null,"wheelchair_boarding":null,"level_id":null,"platform_code":null},"501":{"stop_id":"501","stop_code":null,"stop_name":"Eastchester-Dyre Av","tts_stop_name":null,"stop_desc":null,"stop_lat":40.8883,"stop_lon":-73.830834,"zone_id":null,"stop_url":null,"location_type":1,"parent_station":null,"stop_timezone":null,"wheelchair_boarding":null,"level_id":null,"platform_code":null},"502":{"stop_id":"502","stop_code":null,"stop_name":"Baychester Av","tts_stop_name":null,"stop_desc":null,"stop_lat":40.878663,"stop_lon":-73.838591,"zone_id":null,"stop_url":null,"location_type":1,"parent_station":null,"stop_timezone":null,"wheelchair_boarding":null,"level_id":null,"platform_code":null},"503":{"stop_id":"503","stop_code":null,"stop_name":"Gun Hill Rd","tts_stop_name":null,"stop_desc":null,"stop_lat":40.869526,"stop_lon":-73.846384,"zone_id":null,"stop_url":null,"location_type":1,"parent_station":null,"stop_timezone":null,"wheelchair_boarding":null,"level_id":null,"platform_code":null},"504":{"stop_id":"504","stop_code":null,"stop_name":"Pelham Pkwy","tts_stop_name":null,"stop_desc":null,"stop_lat":40.858985,"stop_lon":-73.855359,"zone_id":null,"stop_url":null,"location_type":1,"parent_station":null,"stop_timezone":null,"wheelchair_boarding":null,"level_id":null,"platform_code":null},"505":{"stop_id":"505","stop_code":null,"stop_name":"Morris Park","tts_stop_name":null,"stop_desc":null,"stop_lat":40.854364,"stop_lon":-73.860495,"zone_id":null,"stop_url":null,"location_type":1,"parent_station":null,"stop_timezone":null,"wheelchair_boarding":null,"level_id":null,"platform_code":null},"601":{"stop_id":"601","stop_code":null,"stop_name":"Pelham Bay Park","tts_stop_name":null,"stop_desc":null,"stop_lat":40.852462,"stop_lon":-73.828121,"zone_id":null,"stop_url":null,"location_type":1,"parent_station":null,"stop_timezone":null,"wheelchair_boarding":null,"level_id":null,"platform_code":null},"602":{"stop_id":"602","stop_code":null,"stop_name":"Buhre Av","tts_stop_name":null,"stop_desc":null,"stop_lat":40.84681,"stop_lon":-73.832569,"zone_id":null,"stop_url":null,"location_type":1,"parent_station":null,"stop_timezone":null,"wheelchair_boarding":null,"level_id":null,"platform_code":null},"603":{"stop_id":"603","stop_code":null,"stop_name":"Middletown Rd","tts_stop_name":null,"stop_desc":null,"stop_lat":40.843863,"stop_lon":-73.836322,"zone_id":null,"stop_url":null,"location_type":1,"parent_station":null,"stop_timezone":null,"wheelchair_boarding":null,"level_id":null,"platform_code":null},"604":{"stop_id":"604","stop_code":null,"stop_name":"Westchester Sq-E Tremont Av","tts_stop_name":null,"stop_desc":null,"stop_lat":40.839892,"stop_lon":-73.842952,"zone_id":null,"stop_url":null,"location_type":1,"parent_station":null,"stop_timezone":null,"wheelchair_boarding":null,"level_id":null,"platform_code":null},"606":{"stop_id":"606","stop_code":null,"stop_name":"Zerega Av","tts_stop_name":null,"stop_desc":null,"stop_lat":40.836488,"stop_lon":-73.847036,"zone_id":null,"stop_url":null,"location_type":1,"parent_station":null,"stop_timezone":null,"wheelchair_boarding":null,"level_id":null,"platform_code":null},"607":{"stop_id":"607","stop_code":null,"stop_name":"Castle Hill Av","tts_stop_name":null,"stop_desc":null,"stop_lat":40.834255,"stop_lon":-73.851222,"zone_id":null,"stop_url":null,"location_type":1,"parent_station":null,"stop_timezone":null,"wheelchair_boarding":null,"level_id":null,"platform_code":null},"608":{"stop_id":"608","stop_code":null,"stop_name":"Parkchester","tts_stop_name":null,"stop_desc":null,"stop_lat":40.833226,"stop_lon":-73.860816,"zone_id":null,"stop_url":null,"location_type":1,"parent_station":null,"stop_timezone":null,"wheelchair_boarding":null,"level_id":null,"platform_code":null},"609":{"stop_id":"609","stop_code":null,"stop_name":"St Lawrence Av","tts_stop_name":null,"stop_desc":null,"stop_lat":40.831509,"stop_lon":-73.867618,"zone_id":null,"stop_url":null,"location_type":1,"parent_station":null,"stop_timezone":null,"wheelchair_boarding":null,"level_id":null,"platform_code":null},"610":{"stop_id":"610","stop_code":null,"stop_name":"Morrison Av-Soundview","tts_stop_name":null,"stop_desc":null,"stop_lat":40.829521,"stop_lon":-73.874516,"zone_id":null,"stop_url":null,"location_type":1,"parent_station":null,"stop_timezone":null,"wheelchair_boarding":null,"level_id":null,"platform_code":null},"611":{"stop_id":"611","stop_code":null,"stop_name":"Elder Av","tts_stop_name":null,"stop_desc":null,"stop_lat":40.828584,"stop_lon":-73.879159,"zone_id":null,"stop_url":null,"location_type":1,"parent_station":null,"stop_timezone":null,"wheelchair_boarding":null,"level_id":null,"platform_code":null},"612":{"stop_id":"612","stop_code":null,"stop_name":"Whitlock Av","tts_stop_name":null,"stop_desc":null,"stop_lat":40.826525,"stop_lon":-73.886283,"zone_id":null,"stop_url":null,"location_type":1,"parent_station":null,"stop_timezone":null,"wheelchair_boarding":null,"level_id":null,"platform_code":null},"613":{"stop_id":"613","stop_code":null,"stop_name":"Hunts Point Av","tts_stop_name":null,"stop_desc":null,"stop_lat":40.820948,"stop_lon":-73.890549,"zone_id":null,"stop_url":null,"location_type":1,"parent_station":null,"stop_timezone":null,"wheelchair_boarding":null,"level_id":null,"platform_code":null},"614":{"stop_id":"614","stop_code":null,"stop_name":"Longwood Av","tts_stop_name":null,"stop_desc":null,"stop_lat":40.816104,"stop_lon":-73.896435,"zone_id":null,"stop_url":null,"location_type":1,"parent_station":null,"stop_timezone":null,"wheelchair_boarding":null,"level_id":null,"platform_code":null},"615":{"stop_id":"615","stop_code":null,"stop_name":"E 149 St","tts_stop_name":null,"stop_desc":null,"stop_lat":40.812118,"stop_lon":-73.904098,"zone_id":null,"stop_url":null,"location_type":1,"parent_station":null,"stop_timezone":null,"wheelchair_boarding":null,"level_id":null,"platform_code":null},"616":{"stop_id":"616","stop_code":null,"stop_name":"E 143 St-St Mary's St","tts_stop_name":null,"stop_desc":null,"stop_lat":40.808719,"stop_lon":-73.907657,"zone_id":null,"stop_url":null,"location_type":1,"parent_station":null,"stop_timezone":null,"wheelchair_boarding":null,"level_id":null,"platform_code":null},"617":{"stop_id":"617","stop_code":null,"stop_name":"Cypress Av","tts_stop_name":null,"stop_desc":null,"stop_lat":40.805368,"stop_lon":-73.914042,"zone_id":null,"stop_url":null,"location_type":1,"parent_station":null,"stop_timezone":null,"wheelchair_boarding":null,"level_id":null,"platform_code":null},"618":{"stop_id":"618","stop_code":null,"stop_name":"Brook Av","tts_stop_name":null,"stop_desc":null,"stop_lat":40.807566,"stop_lon":-73.91924,"zone_id":null,"stop_url":null,"location_type":1,"parent_station":null,"stop_timezone":null,"wheelchair_boarding":null,"level_id":null,"platform_code":null},"619":{"stop_id":"619","stop_code":null,"stop_name":"3 Av-138 St","tts_stop_name":null,"stop_desc":null,"stop_lat":40.810476,"stop_lon":-73.926138,"zone_id":null,"stop_url":null,"location_type":1,"parent_station":null,"stop_timezone":null,"wheelchair_boarding":null,"level_id":null,"platform_code":null},"621":{"stop_id":"621","stop_code":null,"stop_name":"125 St","tts_stop_name":null,"stop_desc":null,"stop_lat":40.804138,"stop_lon":-73.937594,"zone_id":null,"stop_url":null,"location_type":1,"parent_station":null,"stop_timezone":null,"wheelchair_boarding":null,"level_id":null,"platform_code":null},"622":{"stop_id":"622","stop_code":null,"stop_name":"116 St","tts_stop_name":null,"stop_desc":null,"stop_lat":40.798629,"stop_lon":-73.941617,"zone_id":null,"stop_url":null,"location_type":1,"parent_station":null,"stop_timezone":null,"wheelchair_boarding":null,"level_id":null,"platform_code":null},"623":{"stop_id":"623","stop_code":null,"stop_name":"110 St","tts_stop_name":null,"stop_desc":null,"stop_lat":40.79502,"stop_lon":-73.94425,"zone_id":null,"stop_url":null,"location_type":1,"parent_station":null,"stop_timezone":null,"wheelchair_boarding":null,"level_id":null,"platform_code":null},"624":{"stop_id":"624","stop_code":null,"stop_name":"103 St","tts_stop_name":null,"stop_desc":null,"stop_lat":40.7906,"stop_lon":-73.947478,"zone_id":null,"stop_url":null,"location_type":1,"parent_station":null,"stop_timezone":null,"wheelchair_boarding":null,"level_id":null,"platform_code":null},"625":{"stop_id":"625","stop_code":null,"stop_name":"96 St","tts_stop_name":null,"stop_desc":null,"stop_lat":40.785672,"stop_lon":-73.95107,"zone_id":null,"stop_url":null,"location_type":1,"parent_station":null,"stop_timezone":null,"wheelchair_boarding":null,"level_id":null,"platform_code":null},"626":{"stop_id":"626","stop_code":null,"stop_name":"86 St","tts_stop_name":null,"stop_desc":null,"stop_lat":40.779492,"stop_lon":-73.955589,"zone_id":null,"stop_url":null,"location_type":1,"parent_station":null,"stop_timezone":null,"wheelchair_boarding":null,"level_id":null,"platform_code":null},"627":{"stop_id":"627","stop_code":null,"stop_name":"77 St","tts_stop_name":null,"stop_desc":null,"stop_lat":40.77362,"stop_lon":-73.959874,"zone_id":null,"stop_url":null,"location_type":1,"parent_station":null,"stop_timezone":null,"wheelchair_boarding":null,"level_id":null,"platform_code":null},"628":{"stop_id":"628","stop_code":null,"stop_name":"68 St-Hunter College","tts_stop_name":null,"stop_desc":null,"stop_lat":40.768141,"stop_lon":-73.96387,"zone_id":null,"stop_url":null,"location_type":1,"parent_station":null,"stop_timezone":null,"wheelchair_boarding":null,"level_id":null,"platform_code":null},"629":{"stop_id":"629","stop_code":null,"stop_name":"59 St","tts_stop_name":null,"stop_desc":null,"stop_lat":40.762526,"stop_lon":-73.967967,"zone_id":null,"stop_url":null,"location_type":1,"parent_station":null,"stop_timezone":null,"wheelchair_boarding":null,"level_id":null,"platform_code":null},"630":{"stop_id":"630","stop_code":null,"stop_name":"51 St","tts_stop_name":null,"stop_desc":null,"stop_lat":40.757107,"stop_lon":-73.97192,"zone_id":null,"stop_url":null,"location_type":1,"parent_station":null,"stop_timezone":null,"wheelchair_boarding":null,"level_id":null,"platform_code":null},"631":{"stop_id":"631","stop_code":null,"stop_name":"Grand Central-42 St","tts_stop_name":null,"stop_desc":null,"stop_lat":40.751776,"stop_lon":-73.976848,"zone_id":null,"stop_url":null,"location_type":1,"parent_station":null,"stop_timezone":null,"wheelchair_boarding":null,"level_id":null,"platform_code":null},"632":{"stop_id":"632","stop_code":null,"stop_name":"33 St","tts_stop_name":null,"stop_desc":null,"stop_lat":40.746081,"stop_lon":-73.982076,"zone_id":null,"stop_url":null,"location_type":1,"parent_station":null,"stop_timezone":null,"wheelchair_boarding":null,"level_id":null,"platform_code":null},"633":{"stop_id":"633","stop_code":null,"stop_name":"28 St","tts_stop_name":null,"stop_desc":null,"stop_lat":40.74307,"stop_lon":-73.984264,"zone_id":null,"stop_url":null,"location_type":1,"parent_station":null,"stop_timezone":null,"wheelchair_boarding":null,"level_id":null,"platform_code":null},"634":{"stop_id":"634","stop_code":null,"stop_name":"23 St","tts_stop_name":null,"stop_desc":null,"stop_lat":40.739864,"stop_lon":-73.986599,"zone_id":null,"stop_url":null,"location_type":1,"parent_station":null,"stop_timezone":null,"wheelchair_boarding":null,"level_id":null,"platform_code":null},"635":{"stop_id":"635","stop_code":null,"stop_name":"14 St-Union Sq","tts_stop_name":null,"stop_desc":null,"stop_lat":40.734673,"stop_lon":-73.989951,"zone_id":null,"stop_url":null,"location_type":1,"parent_station":null,"stop_timezone":null,"wheelchair_boarding":null,"level_id":null,"platform_code":null},"636":{"stop_id":"636","stop_code":null,"stop_name":"Astor Pl","tts_stop_name":null,"stop_desc":null,"stop_lat":40.730054,"stop_lon":-73.99107,"zone_id":null,"stop_url":null,"location_type":1,"parent_station":null,"stop_timezone":null,"wheelchair_boarding":null,"level_id":null,"platform_code":null},"637":{"stop_id":"637","stop_code":null,"stop_name":"Bleecker St","tts_stop_name":null,"stop_desc":null,"stop_lat":40.725915,"stop_lon":-73.994659,"zone_id":null,"stop_url":null,"location_type":1,"parent_station":null,"stop_timezone":null,"wheelchair_boarding":null,"level_id":null,"platform_code":null},"638":{"stop_id":"638","stop_code":null,"stop_name":"Spring St","tts_stop_name":null,"stop_desc":null,"stop_lat":40.722301,"stop_lon":-73.997141,"zone_id":null,"stop_url":null,"location_type":1,"parent_station":null,"stop_timezone":null,"wheelchair_boarding":null,"level_id":null,"platform_code":null},"639":{"stop_id":"639","stop_code":null,"stop_name":"Canal St","tts_stop_name":null,"stop_desc":null,"stop_lat":40.718803,"stop_lon":-74.000193,"zone_id":null,"stop_url":null,"location_type":1,"parent_station":null,"stop_timezone":null,"wheelchair_boarding":null,"level_id":null,"platform_code":null},"640":{"stop_id":"640","stop_code":null,"stop_name":"Brooklyn Bridge-City Hall","tts_stop_name":null,"stop_desc":null,"stop_lat":40.713065,"stop_lon":-74.004131,"zone_id":null,"stop_url":null,"location_type":1,"parent_station":null,"stop_timezone":null,"wheelchair_boarding":null,"level_id":null,"platform_code":null},"701":{"stop_id":"701","stop_code":null,"stop_name":"Flushing-Main St","tts_stop_name":null,"stop_desc":null,"stop_lat":40.7596,"stop_lon":-73.83003,"zone_id":null,"stop_url":null,"location_type":1,"parent_station":null,"stop_timezone":null,"wheelchair_boarding":null,"level_id":null,"platform_code":null},"702":{"stop_id":"702","stop_code":null,"stop_name":"Mets-Willets Point","tts_stop_name":null,"stop_desc":null,"stop_lat":40.754622,"stop_lon":-73.845625,"zone_id":null,"stop_url":null,"location_type":1,"parent_station":null,"stop_timezone":null,"wheelchair_boarding":null,"level_id":null,"platform_code":null},"705":{"stop_id":"705","stop_code":null,"stop_name":"111 St","tts_stop_name":null,"stop_desc":null,"stop_lat":40.75173,"stop_lon":-73.855334,"zone_id":null,"stop_url":null,"location_type":1,"parent_station":null,"stop_timezone":null,"wheelchair_boarding":null,"level_id":null,"platform_code":null},"706":{"stop_id":"706","stop_code":null,"stop_name":"103 St-Corona Plaza","tts_stop_name":null,"stop_desc":null,"stop_lat":40.749865,"stop_lon":-73.8627,"zone_id":null,"stop_url":null,"location_type":1,"parent_station":null,"stop_timezone":null,"wheelchair_boarding":null,"level_id":null,"platform_code":null},"707":{"stop_id":"707","stop_code":null,"stop_name":"Junction Blvd","tts_stop_name":null,"stop_desc":null,"stop_lat":40.749145,"stop_lon":-73.869527,"zone_id":null,"stop_url":null,"location_type":1,"parent_station":null,"stop_timezone":null,"wheelchair_boarding":null,"level_id":null,"platform_code":null},"708":{"stop_id":"708","stop_code":null,"stop_name":"90 St-Elmhurst Av","tts_stop_name":null,"stop_desc":null,"stop_lat":40.748408,"stop_lon":-73.876613,"zone_id":null,"stop_url":null,"location_type":1,"parent_station":null,"stop_timezone":null,"wheelchair_boarding":null,"level_id":null,"platform_code":null},"709":{"stop_id":"709","stop_code":null,"stop_name":"82 St-Jackson Hts","tts_stop_name":null,"stop_desc":null,"stop_lat":40.747659,"stop_lon":-73.883697,"zone_id":null,"stop_url":null,"location_type":1,"parent_station":null,"stop_timezone":null,"wheelchair_boarding":null,"level_id":null,"platform_code":null},"710":{"stop_id":"710","stop_code":null,"stop_name":"74 St-Broadway","tts_stop_name":null,"stop_desc":null,"stop_lat":40.746848,"stop_lon":-73.891394,"zone_id":null,"stop_url":null,"location_type":1,"parent_station":null,"stop_timezone":null,"wheelchair_boarding":null,"level_id":null,"platform_code":null},"711":{"stop_id":"711","stop_code":null,"stop_name":"69 St","tts_stop_name":null,"stop_desc":null,"stop_lat":40.746325,"stop_lon":-73.896403,"zone_id":null,"stop_url":null,"location_type":1,"parent_station":null,"stop_timezone":null,"wheelchair_boarding":null,"level_id":null,"platform_code":null},"712":{"stop_id":"712","stop_code":null,"stop_name":"61 St-Woodside","tts_stop_name":null,"stop_desc":null,"stop_lat":40.74563,"stop_lon":-73.902984,"zone_id":null,"stop_url":null,"location_type":1,"parent_station":null,"stop_timezone":null,"wheelchair_boarding":null,"level_id":null,"platform_code":null},"713":{"stop_id":"713","stop_code":null,"stop_name":"52 St","tts_stop_name":null,"stop_desc":null,"stop_lat":40.744149,"stop_lon":-73.912549,"zone_id":null,"stop_url":null,"location_type":1,"parent_station":null,"stop_timezone":null,"wheelchair_boarding":null,"level_id":null,"platform_code":null},"714":{"stop_id":"714","stop_code":null,"stop_name":"46 St-Bliss St","tts_stop_name":null,"stop_desc":null,"stop_lat":40.743132,"stop_lon":-73.918435,"zone_id":null,"stop_url":null,"location_type":1,"parent_station":null,"stop_timezone":null,"wheelchair_boarding":null,"level_id":null,"platform_code":null},"715":{"stop_id":"715","stop_code":null,"stop_name":"40 St-Lowery St","tts_stop_name":null,"stop_desc":null,"stop_lat":40.743781,"stop_lon":-73.924016,"zone_id":null,"stop_url":null,"location_type":1,"parent_station":null,"stop_timezone":null,"wheelchair_boarding":null,"level_id":null,"platform_code":null},"716":{"stop_id":"716","stop_code":null,"stop_name":"33 St-Rawson St","tts_stop_name":null,"stop_desc":null,"stop_lat":40.744587,"stop_lon":-73.930997,"zone_id":null,"stop_url":null,"location_type":1,"parent_station":null,"stop_timezone":null,"wheelchair_boarding":null,"level_id":null,"platform_code":null},"718":{"stop_id":"718","stop_code":null,"stop_name":"Queensboro Plaza","tts_stop_name":null,"stop_desc":null,"stop_lat":40.750582,"stop_lon":-73.940202,"zone_id":null,"stop_url":null,"location_type":1,"parent_station":null,"stop_timezone":null,"wheelchair_boarding":null,"level_id":null,"platform_code":null},"719":{"stop_id":"719","stop_code":null,"stop_name":"Court Sq","tts_stop_name":null,"stop_desc":null,"stop_lat":40.747023,"stop_lon":-73.945264,"zone_id":null,"stop_url":null,"location_type":1,"parent_station":null,"stop_timezone":null,"wheelchair_boarding":null,"level_id":null,"platform_code":null},"720":{"stop_id":"720","stop_code":null,"stop_name":"Hunters Point Av","tts_stop_name":null,"stop_desc":null,"stop_lat":40.742216,"stop_lon":-73.948916,"zone_id":null,"stop_url":null,"location_type":1,"parent_station":null,"stop_timezone":null,"wheelchair_boarding":null,"level_id":null,"platform_code":null},"721":{"stop_id":"721","stop_code":null,"stop_name":"Vernon Blvd-Jackson Av","tts_stop_name":null,"stop_desc":null,"stop_lat":40.742626,"stop_lon":-73.953581,"zone_id":null,"stop_url":null,"location_type":1,"parent_station":null,"stop_timezone":null,"wheelchair_boarding":null,"level_id":null,"platform_code":null},"723":{"stop_id":"723","stop_code":null,"stop_name":"Grand Central-42 St","tts_stop_name":null,"stop_desc":null,"stop_lat":40.751431,"stop_lon":-73.976041,"zone_id":null,"stop_url":null,"location_type":1,"parent_station":null,"stop_timezone":null,"wheelchair_boarding":null,"level_id":null,"platform_code":null},"724":{"stop_id":"724","stop_code":null,"stop_name":"5 Av","tts_stop_name":null,"stop_desc":null,"stop_lat":40.753821,"stop_lon":-73.981963,"zone_id":null,"stop_url":null,"location_type":1,"parent_station":null,"stop_timezone":null,"wheelchair_boarding":null,"level_id":null,"platform_code":null},"725":{"stop_id":"725","stop_code":null,"stop_name":"Times Sq-42 St","tts_stop_name":null,"stop_desc":null,"stop_lat":40.755477,"stop_lon":-73.987691,"zone_id":null,"stop_url":null,"location_type":1,"parent_station":null,"stop_timezone":null,"wheelchair_boarding":null,"level_id":null,"platform_code":null},"726":{"stop_id":"726","stop_code":null,"stop_name":"34 St-Hudson Yards","tts_stop_name":null,"stop_desc":null,"stop_lat":40.755882,"stop_lon":-74.00191,"zone_id":null,"stop_url":null,"location_type":1,"parent_station":null,"stop_timezone":null,"wheelchair_boarding":null,"level_id":null,"platform_code":null},"901":{"stop_id":"901","stop_code":null,"stop_name":"Grand Central-42 St","tts_stop_name":null,"stop_desc":null,"stop_lat":40.752769,"stop_lon":-73.979189,"zone_id":null,"stop_url":null,"location_type":1,"parent_station":null,"stop_timezone":null,"wheelchair_boarding":null,"level_id":null,"platform_code":null},"902":{"stop_id":"902","stop_code":null,"stop_name":"Times Sq-42 St","tts_stop_name":null,"stop_desc":null,"stop_lat":40.755983,"stop_lon":-73.986229,"zone_id":null,"stop_url":null,"location_type":1,"parent_station":null,"stop_timezone":null,"wheelchair_boarding":null,"level_id":null,"platform_code":null},"120S":{"stop_id":"120S","stop_code":null,"stop_name":"96 St","tts_stop_name":null,"stop_desc":null,"stop_lat":40.793919,"stop_lon":-73.972323,"zone_id":null,"stop_url":null,"location_type":0,"parent_station":"120","stop_timezone":null,"wheelchair_boarding":null,"level_id":null,"platform_code":null},"120N":{"stop_id":"120N","stop_code":null,"stop_name":"96 St","tts_stop_name":null,"stop_desc":null,"stop_lat":40.793919,"stop_lon":-73.972323,"zone_id":null,"stop_url":null,"location_type":0,"parent_station":"120","stop_timezone":null,"wheelchair_boarding":null,"level_id":null,"platform_code":null},"119S":{"stop_id":"119S","stop_code":null,"stop_name":"103 St","tts_stop_name":null,"stop_desc":null,"stop_lat":40.799446,"stop_lon":-73.968379,"zone_id":null,"stop_url":null,"location_type":0,"parent_station":"119","stop_timezone":null,"wheelchair_boarding":null,"level_id":null,"platform_code":null},"119N":{"stop_id":"119N","stop_code":null,"stop_name":"103 St","tts_stop_name":null,"stop_desc":null,"stop_lat":40.799446,"stop_lon":-73.968379,"zone_id":null,"stop_url":null,"location_type":0,"parent_station":"119","stop_timezone":null,"wheelchair_boarding":null,"level_id":null,"platform_code":null},"118S":{"stop_id":"118S","stop_code":null,"stop_name":"Cathedral Pkwy (110 St)","tts_stop_name":null,"stop_desc":null,"stop_lat":40.803967,"stop_lon":-73.966847,"zone_id":null,"stop_url":null,"location_type":0,"parent_station":"118","stop_timezone":null,"wheelchair_boarding":null,"level_id":null,"platform_code":null},"118N":{"stop_id":"118N","stop_code":null,"stop_name":"Cathedral Pkwy (110 St)","tts_stop_name":null,"stop_desc":null,"stop_lat":40.803967,"stop_lon":-73.966847,"zone_id":null,"stop_url":null,"location_type":0,"parent_station":"118","stop_timezone":null,"wheelchair_boarding":null,"level_id":null,"platform_code":null},"117S":{"stop_id":"117S","stop_code":null,"stop_name":"116 St-Columbia University","tts_stop_name":null,"stop_desc":null,"stop_lat":40.807722,"stop_lon":-73.96411,"zone_id":null,"stop_url":null,"location_type":0,"parent_station":"117","stop_timezone":null,"wheelchair_boarding":null,"level_id":null,"platform_code":null},"117N":{"stop_id":"117N","stop_code":null,"stop_name":"116 St-Columbia University","tts_stop_name":null,"stop_desc":null,"stop_lat":40.807722,"stop_lon":-73.96411,"zone_id":null,"stop_url":null,"location_type":0,"parent_station":"117","stop_timezone":null,"wheelchair_boarding":null,"level_id":null,"platform_code":null},"116S":{"stop_id":"116S","stop_code":null,"stop_name":"125 St","tts_stop_name":null,"stop_desc":null,"stop_lat":40.815581,"stop_lon":-73.958372,"zone_id":null,"stop_url":null,"location_type":0,"parent_station":"116","stop_timezone":null,"wheelchair_boarding":null,"level_id":null,"platform_code":null},"116N":{"stop_id":"116N","stop_code":null,"stop_name":"125 St","tts_stop_name":null,"stop_desc":null,"stop_lat":40.815581,"stop_lon":-73.958372,"zone_id":null,"stop_url":null,"location_type":0,"parent_station":"116","stop_timezone":null,"wheelchair_boarding":null,"level_id":null,"platform_code":null},"115S":{"stop_id":"115S","stop_code":null,"stop_name":"137 St-City College","tts_stop_name":null,"stop_desc":null,"stop_lat":40.822008,"stop_lon":-73.953676,"zone_id":null,"stop_url":null,"location_type":0,"parent_station":"115","stop_timezone":null,"wheelchair_boarding":null,"level_id":null,"platform_code":null},"115N":{"stop_id":"115N","stop_code":null,"stop_name":"137 St-City College","tts_stop_name":null,"stop_desc":null,"stop_lat":40.822008,"stop_lon":-73.953676,"zone_id":null,"stop_url":null,"location_type":0,"parent_station":"115","stop_timezone":null,"wheelchair_boarding":null,"level_id":null,"platform_code":null},"114S":{"stop_id":"114S","stop_code":null,"stop_name":"145 St","tts_stop_name":null,"stop_desc":null,"stop_lat":40.826551,"stop_lon":-73.95036,"zone_id":null,"stop_url":null,"location_type":0,"parent_station":"114","stop_timezone":null,"wheelchair_boarding":null,"level_id":null,"platform_code":null},"114N":{"stop_id":"114N","stop_code":null,"stop_name":"145 St","tts_stop_name":null,"stop_desc":null,"stop_lat":40.826551,"stop_lon":-73.95036,"zone_id":null,"stop_url":null,"location_type":0,"parent_station":"114","stop_timezone":null,"wheelchair_boarding":null,"level_id":null,"platform_code":null},"113S":{"stop_id":"113S","stop_code":null,"stop_name":"157 St","tts_stop_name":null,"stop_desc":null,"stop_lat":40.834041,"stop_lon":-73.94489,"zone_id":null,"stop_url":null,"location_type":0,"parent_station":"113","stop_timezone":null,"wheelchair_boarding":null,"level_id":null,"platform_code":null},"113N":{"stop_id":"113N","stop_code":null,"stop_name":"157 St","tts_stop_name":null,"stop_desc":null,"stop_lat":40.834041,"stop_lon":-73.94489,"zone_id":null,"stop_url":null,"location_type":0,"parent_station":"113","stop_timezone":null,"wheelchair_boarding":null,"level_id":null,"platform_code":null},"112S":{"stop_id":"112S","stop_code":null,"stop_name":"168 St-Washington Hts","tts_stop_name":null,"stop_desc":null,"stop_lat":40.840556,"stop_lon":-73.940133,"zone_id":null,"stop_url":null,"location_type":0,"parent_station":"112","stop_timezone":null,"wheelchair_boarding":null,"level_id":null,"platform_code":null},"112N":{"stop_id":"112N","stop_code":null,"stop_name":"168 St-Washington Hts","tts_stop_name":null,"stop_desc":null,"stop_lat":40.840556,"stop_lon":-73.940133,"zone_id":null,"stop_url":null,"location_type":0,"parent_station":"112","stop_timezone":null,"wheelchair_boarding":null,"level_id":null,"platform_code":null},"111S":{"stop_id":"111S","stop_code":null,"stop_name":"181 St","tts_stop_name":null,"stop_desc":null,"stop_lat":40.849505,"stop_lon":-73.933596,"zone_id":null,"stop_url":null,"location_type":0,"parent_station":"111","stop_timezone":null,"wheelchair_boarding":null,"level_id":null,"platform_code":null},"111N":{"stop_id":"111N","stop_code":null,"stop_name":"181 St","tts_stop_name":null,"stop_desc":null,"stop_lat":40.849505,"stop_lon":-73.933596,"zone_id":null,"stop_url":null,"location_type":0,"parent_station":"111","stop_timezone":null,"wheelchair_boarding":null,"level_id":null,"platform_code":null},"110S":{"stop_id":"110S","stop_code":null,"stop_name":"191 St","tts_stop_name":null,"stop_desc":null,"stop_lat":40.855225,"stop_lon":-73.929412,"zone_id":null,"stop_url":null,"location_type":0,"parent_station":"110","stop_timezone":null,"wheelchair_boarding":null,"level_id":null,"platform_code":null},"110N":{"stop_id":"110N","stop_code":null,"stop_name":"191 St","tts_stop_name":null,"stop_desc":null,"stop_lat":40.855225,"stop_lon":-73.929412,"zone_id":null,"stop_url":null,"location_type":0,"parent_station":"110","stop_timezone":null,"wheelchair_boarding":null,"level_id":null,"platform_code":null},"109S":{"stop_id":"109S","stop_code":null,"stop_name":"Dyckman St","tts_stop_name":null,"stop_desc":null,"stop_lat":40.860531,"stop_lon":-73.925536,"zone_id":null,"stop_url":null,"location_type":0,"parent_station":"109","stop_timezone":null,"wheelchair_boarding":null,"level_id":null,"platform_code":null},"109N":{"stop_id":"109N","stop_code":null,"stop_name":"Dyckman St","tts_stop_name":null,"stop_desc":null,"stop_lat":40.860531,"stop_lon":-73.925536,"zone_id":null,"stop_url":null,"location_type":0,"parent_station":"109","stop_timezone":null,"wheelchair_boarding":null,"level_id":null,"platform_code":null},"108S":{"stop_id":"108S","stop_code":null,"stop_name":"207 St","tts_stop_name":null,"stop_desc":null,"stop_lat":40.864621,"stop_lon":-73.918822,"zone_id":null,"stop_url":null,"location_type":0,"parent_station":"108","stop_timezone":null,"wheelchair_boarding":null,"level_id":null,"platform_code":null},"108N":{"stop_id":"108N","stop_code":null,"stop_name":"207 St","tts_stop_name":null,"stop_desc":null,"stop_lat":40.864621,"stop_lon":-73.918822,"zone_id":null,"stop_url":null,"location_type":0,"parent_station":"108","stop_timezone":null,"wheelchair_boarding":null,"level_id":null,"platform_code":null},"107S":{"stop_id":"107S","stop_code":null,"stop_name":"215 St","tts_stop_name":null,"stop_desc":null,"stop_lat":40.869444,"stop_lon":-73.915279,"zone_id":null,"stop_url":null,"location_type":0,"parent_station":"107","stop_timezone":null,"wheelchair_boarding":null,"level_id":null,"platform_code":null},"107N":{"stop_id":"107N","stop_code":null,"stop_name":"215 St","tts_stop_name":null,"stop_desc":null,"stop_lat":40.869444,"stop_lon":-73.915279,"zone_id":null,"stop_url":null,"location_type":0,"parent_station":"107","stop_timezone":null,"wheelchair_boarding":null,"level_id":null,"platform_code":null},"106S":{"stop_id":"106S","stop_code":null,"stop_name":"Marble Hill-225 St","tts_stop_name":null,"stop_desc":null,"stop_lat":40.874561,"stop_lon":-73.909831,"zone_id":null,"stop_url":null,"location_type":0,"parent_station":"106","stop_timezone":null,"wheelchair_boarding":null,"level_id":null,"platform_code":null},"106N":{"stop_id":"106N","stop_code":null,"stop_name":"Marble Hill-225 St","tts_stop_name":null,"stop_desc":null,"stop_lat":40.874561,"stop_lon":-73.909831,"zone_id":null,"stop_url":null,"location_type":0,"parent_station":"106","stop_timezone":null,"wheelchair_boarding":null,"level_id":null,"platform_code":null},"104S":{"stop_id":"104S","stop_code":null,"stop_name":"231 St","tts_stop_name":null,"stop_desc":null,"stop_lat":40.878856,"stop_lon":-73.904834,"zone_id":null,"stop_url":null,"location_type":0,"parent_station":"104","stop_timezone":null,"wheelchair_boarding":null,"level_id":null,"platform_code":null},"104N":{"stop_id":"104N","stop_code":null,"stop_name":"231 St","tts_stop_name":null,"stop_desc":null,"stop_lat":40.878856,"stop_lon":-73.904834,"zone_id":null,"stop_url":null,"location_type":0,"parent_station":"104","stop_timezone":null,"wheelchair_boarding":null,"level_id":null,"platform_code":null},"103S":{"stop_id":"103S","stop_code":null,"stop_name":"238 St","tts_stop_name":null,"stop_desc":null,"stop_lat":40.884667,"stop_lon":-73.90087,"zone_id":null,"stop_url":null,"location_type":0,"parent_station":"103","stop_timezone":null,"wheelchair_boarding":null,"level_id":null,"platform_code":null},"103N":{"stop_id":"103N","stop_code":null,"stop_name":"238 St","tts_stop_name":null,"stop_desc":null,"stop_lat":40.884667,"stop_lon":-73.90087,"zone_id":null,"stop_url":null,"location_type":0,"parent_station":"103","stop_timezone":null,"wheelchair_boarding":null,"level_id":null,"platform_code":null},"101S":{"stop_id":"101S","stop_code":null,"stop_name":"Van Cortlandt Park-242 St","tts_stop_name":null,"stop_desc":null,"stop_lat":40.889248,"stop_lon":-73.898583,"zone_id":null,"stop_url":null,"location_type":0,"parent_station":"101","stop_timezone":null,"wheelchair_boarding":null,"level_id":null,"platform_code":null},"101N":{"stop_id":"101N","stop_code":null,"stop_name":"Van Cortlandt Park-242 St","tts_stop_name":null,"stop_desc":null,"stop_lat":40.889248,"stop_lon":-73.898583,"zone_id":null,"stop_url":null,"location_type":0,"parent_station":"101","stop_timezone":null,"wheelchair_boarding":null,"level_id":null,"platform_code":null},"138S":{"stop_id":"138S","stop_code":null,"stop_name":"WTC Cortlandt","tts_stop_name":null,"stop_desc":null,"stop_lat":40.711835,"stop_lon":-74.012188,"zone_id":null,"stop_url":null,"location_type":0,"parent_station":"138","stop_timezone":null,"wheelchair_boarding":null,"level_id":null,"platform_code":null},"138N":{"stop_id":"138N","stop_code":null,"stop_name":"WTC Cortlandt","tts_stop_name":null,"stop_desc":null,"stop_lat":40.711835,"stop_lon":-74.012188,"zone_id":null,"stop_url":null,"location_type":0,"parent_station":"138","stop_timezone":null,"wheelchair_boarding":null,"level_id":null,"platform_code":null},"137S":{"stop_id":"137S","stop_code":null,"stop_name":"Chambers St","tts_stop_name":null,"stop_desc":null,"stop_lat":40.715478,"stop_lon":-74.009266,"zone_id":null,"stop_url":null,"location_type":0,"parent_station":"137","stop_timezone":null,"wheelchair_boarding":null,"level_id":null,"platform_code":null},"137N":{"stop_id":"137N","stop_code":null,"stop_name":"Chambers St","tts_stop_name":null,"stop_desc":null,"stop_lat":40.715478,"stop_lon":-74.009266,"zone_id":null,"stop_url":null,"location_type":0,"parent_station":"137","stop_timezone":null,"wheelchair_boarding":null,"level_id":null,"platform_code":null},"136S":{"stop_id":"136S","stop_code":null,"stop_name":"Franklin St","tts_stop_name":null,"stop_desc":null,"stop_lat":40.719318,"stop_lon":-74.006886,"zone_id":null,"stop_url":null,"location_type":0,"parent_station":"136","stop_timezone":null,"wheelchair_boarding":null,"level_id":null,"platform_code":null},"136N":{"stop_id":"136N","stop_code":null,"stop_name":"Franklin St","tts_stop_name":null,"stop_desc":null,"stop_lat":40.719318,"stop_lon":-74.006886,"zone_id":null,"stop_url":null,"location_type":0,"parent_station":"136","stop_timezone":null,"wheelchair_boarding":null,"level_id":null,"platform_code":null},"135S":{"stop_id":"135S","stop_code":null,"stop_name":"Canal St","tts_stop_name":null,"stop_desc":null,"stop_lat":40.722854,"stop_lon":-74.006277,"zone_id":null,"stop_url":null,"location_type":0,"parent_station":"135","stop_timezone":null,"wheelchair_boarding":null,"level_id":null,"platform_code":null},"135N":{"stop_id":"135N","stop_code":null,"stop_name":"Canal St","tts_stop_name":null,"stop_desc":null,"stop_lat":40.722854,"stop_lon":-74.006277,"zone_id":null,"stop_url":null,"location_type":0,"parent_station":"135","stop_timezone":null,"wheelchair_boarding":null,"level_id":null,"platform_code":null},"134S":{"stop_id":"134S","stop_code":null,"stop_name":"Houston St","tts_stop_name":null,"stop_desc":null,"stop_lat":40.728251,"stop_lon":-74.005367,"zone_id":null,"stop_url":null,"location_type":0,"parent_station":"134","stop_timezone":null,"wheelchair_boarding":null,"level_id":null,"platform_code":null},"134N":{"stop_id":"134N","stop_code":null,"stop_name":"Houston St","tts_stop_name":null,"stop_desc":null,"stop_lat":40.728251,"stop_lon":-74.005367,"zone_id":null,"stop_url":null,"location_type":0,"parent_station":"134","stop_timezone":null,"wheelchair_boarding":null,"level_id":null,"platform_code":null},"133S":{"stop_id":"133S","stop_code":null,"stop_name":"Christopher St-Sheridan Sq","tts_stop_name":null,"stop_desc":null,"stop_lat":40.733422,"stop_lon":-74.002906,"zone_id":null,"stop_url":null,"location_type":0,"parent_station":"133","stop_timezone":null,"wheelchair_boarding":null,"level_id":null,"platform_code":null},"133N":{"stop_id":"133N","stop_code":null,"stop_name":"Christopher St-Sheridan Sq","tts_stop_name":null,"stop_desc":null,"stop_lat":40.733422,"stop_lon":-74.002906,"zone_id":null,"stop_url":null,"location_type":0,"parent_station":"133","stop_timezone":null,"wheelchair_boarding":null,"level_id":null,"platform_code":null},"132S":{"stop_id":"132S","stop_code":null,"stop_name":"14 St","tts_stop_name":null,"stop_desc":null,"stop_lat":40.737826,"stop_lon":-74.000201,"zone_id":null,"stop_url":null,"location_type":0,"parent_station":"132","stop_timezone":null,"wheelchair_boarding":null,"level_id":null,"platform_code":null},"132N":{"stop_id":"132N","stop_code":null,"stop_name":"14 St","tts_stop_name":null,"stop_desc":null,"stop_lat":40.737826,"stop_lon":-74.000201,"zone_id":null,"stop_url":null,"location_type":0,"parent_station":"132","stop_timezone":null,"wheelchair_boarding":null,"level_id":null,"platform_code":null},"131S":{"stop_id":"131S","stop_code":null,"stop_name":"18 St","tts_stop_name":null,"stop_desc":null,"stop_lat":40.74104,"stop_lon":-73.997871,"zone_id":null,"stop_url":null,"location_type":0,"parent_station":"131","stop_timezone":null,"wheelchair_boarding":null,"level_id":null,"platform_code":null},"131N":{"stop_id":"131N","stop_code":null,"stop_name":"18 St","tts_stop_name":null,"stop_desc":null,"stop_lat":40.74104,"stop_lon":-73.997871,"zone_id":null,"stop_url":null,"location_type":0,"parent_station":"131","stop_timezone":null,"wheelchair_boarding":null,"level_id":null,"platform_code":null},"130S":{"stop_id":"130S","stop_code":null,"stop_name":"23 St","tts_stop_name":null,"stop_desc":null,"stop_lat":40.744081,"stop_lon":-73.995657,"zone_id":null,"stop_url":null,"location_type":0,"parent_station":"130","stop_timezone":null,"wheelchair_boarding":null,"level_id":null,"platform_code":null},"130N":{"stop_id":"130N","stop_code":null,"stop_name":"23 St","tts_stop_name":null,"stop_desc":null,"stop_lat":40.744081,"stop_lon":-73.995657,"zone_id":null,"stop_url":null,"location_type":0,"parent_station":"130","stop_timezone":null,"wheelchair_boarding":null,"level_id":null,"platform_code":null},"129S":{"stop_id":"129S","stop_code":null,"stop_name":"28 St","tts_stop_name":null,"stop_desc":null,"stop_lat":40.747215,"stop_lon":-73.993365,"zone_id":null,"stop_url":null,"location_type":0,"parent_station":"129","stop_timezone":null,"wheelchair_boarding":null,"level_id":null,"platform_code":null},"129N":{"stop_id":"129N","stop_code":null,"stop_name":"28 St","tts_stop_name":null,"stop_desc":null,"stop_lat":40.747215,"stop_lon":-73.993365,"zone_id":null,"stop_url":null,"location_type":0,"parent_station":"129","stop_timezone":null,"wheelchair_boarding":null,"level_id":null,"platform_code":null},"128S":{"stop_id":"128S","stop_code":null,"stop_name":"34 St-Penn Station","tts_stop_name":null,"stop_desc":null,"stop_lat":40.750373,"stop_lon":-73.991057,"zone_id":null,"stop_url":null,"location_type":0,"parent_station":"128","stop_timezone":null,"wheelchair_boarding":null,"level_id":null,"platform_code":null},"128N":{"stop_id":"128N","stop_code":null,"stop_name":"34 St-Penn Station","tts_stop_name":null,"stop_desc":null,"stop_lat":40.750373,"stop_lon":-73.991057,"zone_id":null,"stop_url":null,"location_type":0,"parent_station":"128","stop_timezone":null,"wheelchair_boarding":null,"level_id":null,"platform_code":null},"127S":{"stop_id":"127S","stop_code":null,"stop_name":"Times Sq-42 St","tts_stop_name":null,"stop_desc":null,"stop_lat":40.75529,"stop_lon":-73.987495,"zone_id":null,"stop_url":null,"location_type":0,"parent_station":"127","stop_timezone":null,"wheelchair_boarding":null,"level_id":null,"platform_code":null},"127N":{"stop_id":"127N","stop_code":null,"stop_name":"Times Sq-42 St","tts_stop_name":null,"stop_desc":null,"stop_lat":40.75529,"stop_lon":-73.987495,"zone_id":null,"stop_url":null,"location_type":0,"parent_station":"127","stop_timezone":null,"wheelchair_boarding":null,"level_id":null,"platform_code":null},"126S":{"stop_id":"126S","stop_code":null,"stop_name":"50 St","tts_stop_name":null,"stop_desc":null,"stop_lat":40.761728,"stop_lon":-73.983849,"zone_id":null,"stop_url":null,"location_type":0,"parent_station":"126","stop_timezone":null,"wheelchair_boarding":null,"level_id":null,"platform_code":null},"126N":{"stop_id":"126N","stop_code":null,"stop_name":"50 St","tts_stop_name":null,"stop_desc":null,"stop_lat":40.761728,"stop_lon":-73.983849,"zone_id":null,"stop_url":null,"location_type":0,"parent_station":"126","stop_timezone":null,"wheelchair_boarding":null,"level_id":null,"platform_code":null},"125S":{"stop_id":"125S","stop_code":null,"stop_name":"59 St-Columbus Circle","tts_stop_name":null,"stop_desc":null,"stop_lat":40.768247,"stop_lon":-73.981929,"zone_id":null,"stop_url":null,"location_type":0,"parent_station":"125","stop_timezone":null,"wheelchair_boarding":null,"level_id":null,"platform_code":null},"125N":{"stop_id":"125N","stop_code":null,"stop_name":"59 St-Columbus Circle","tts_stop_name":null,"stop_desc":null,"stop_lat":40.768247,"stop_lon":-73.981929,"zone_id":null,"stop_url":null,"location_type":0,"parent_station":"125","stop_timezone":null,"wheelchair_boarding":null,"level_id":null,"platform_code":null},"124S":{"stop_id":"124S","stop_code":null,"stop_name":"66 St-Lincoln Center","tts_stop_name":null,"stop_desc":null,"stop_lat":40.77344,"stop_lon":-73.982209,"zone_id":null,"stop_url":null,"location_type":0,"parent_station":"124","stop_timezone":null,"wheelchair_boarding":null,"level_id":null,"platform_code":null},"124N":{"stop_id":"124N","stop_code":null,"stop_name":"66 St-Lincoln Center","tts_stop_name":null,"stop_desc":null,"stop_lat":40.77344,"stop_lon":-73.982209,"zone_id":null,"stop_url":null,"location_type":0,"parent_station":"124","stop_timezone":null,"wheelchair_boarding":null,"level_id":null,"platform_code":null},"123S":{"stop_id":"123S","stop_code":null,"stop_name":"72 St","tts_stop_name":null,"stop_desc":null,"stop_lat":40.778453,"stop_lon":-73.98197,"zone_id":null,"stop_url":null,"location_type":0,"parent_station":"123","stop_timezone":null,"wheelchair_boarding":null,"level_id":null,"platform_code":null},"123N":{"stop_id":"123N","stop_code":null,"stop_name":"72 St","tts_stop_name":null,"stop_desc":null,"stop_lat":40.778453,"stop_lon":-73.98197,"zone_id":null,"stop_url":null,"location_type":0,"parent_station":"123","stop_timezone":null,"wheelchair_boarding":null,"level_id":null,"platform_code":null},"122S":{"stop_id":"122S","stop_code":null,"stop_name":"79 St","tts_stop_name":null,"stop_desc":null,"stop_lat":40.783934,"stop_lon":-73.979917,"zone_id":null,"stop_url":null,"location_type":0,"parent_station":"122","stop_timezone":null,"wheelchair_boarding":null,"level_id":null,"platform_code":null},"122N":{"stop_id":"122N","stop_code":null,"stop_name":"79 St","tts_stop_name":null,"stop_desc":null,"stop_lat":40.783934,"stop_lon":-73.979917,"zone_id":null,"stop_url":null,"location_type":0,"parent_station":"122","stop_timezone":null,"wheelchair_boarding":null,"level_id":null,"platform_code":null},"121S":{"stop_id":"121S","stop_code":null,"stop_name":"86 St","tts_stop_name":null,"stop_desc":null,"stop_lat":40.788644,"stop_lon":-73.976218,"zone_id":null,"stop_url":null,"location_type":0,"parent_station":"121","stop_timezone":null,"wheelchair_boarding":null,"level_id":null,"platform_code":null},"121N":{"stop_id":"121N","stop_code":null,"stop_name":"86 St","tts_stop_name":null,"stop_desc":null,"stop_lat":40.788644,"stop_lon":-73.976218,"zone_id":null,"stop_url":null,"location_type":0,"parent_station":"121","stop_timezone":null,"wheelchair_boarding":null,"level_id":null,"platform_code":null},"217S":{"stop_id":"217S","stop_code":null,"stop_name":"Simpson St","tts_stop_name":null,"stop_desc":null,"stop_lat":40.824073,"stop_lon":-73.893064,"zone_id":null,"stop_url":null,"location_type":0,"parent_station":"217","stop_timezone":null,"wheelchair_boarding":null,"level_id":null,"platform_code":null},"217N":{"stop_id":"217N","stop_code":null,"stop_name":"Simpson St","tts_stop_name":null,"stop_desc":null,"stop_lat":40.824073,"stop_lon":-73.893064,"zone_id":null,"stop_url":null,"location_type":0,"parent_station":"217","stop_timezone":null,"wheelchair_boarding":null,"level_id":null,"platform_code":null},"216S":{"stop_id":"216S","stop_code":null,"stop_name":"Freeman St","tts_stop_name":null,"stop_desc":null,"stop_lat":40.829993,"stop_lon":-73.891865,"zone_id":null,"stop_url":null,"location_type":0,"parent_station":"216","stop_timezone":null,"wheelchair_boarding":null,"level_id":null,"platform_code":null},"216N":{"stop_id":"216N","stop_code":null,"stop_name":"Freeman St","tts_stop_name":null,"stop_desc":null,"stop_lat":40.829993,"stop_lon":-73.891865,"zone_id":null,"stop_url":null,"location_type":0,"parent_station":"216","stop_timezone":null,"wheelchair_boarding":null,"level_id":null,"platform_code":null},"215S":{"stop_id":"215S","stop_code":null,"stop_name":"174 St","tts_stop_name":null,"stop_desc":null,"stop_lat":40.837288,"stop_lon":-73.887734,"zone_id":null,"stop_url":null,"location_type":0,"parent_station":"215","stop_timezone":null,"wheelchair_boarding":null,"level_id":null,"platform_code":null},"215N":{"stop_id":"215N","stop_code":null,"stop_name":"174 St","tts_stop_name":null,"stop_desc":null,"stop_lat":40.837288,"stop_lon":-73.887734,"zone_id":null,"stop_url":null,"location_type":0,"parent_station":"215","stop_timezone":null,"wheelchair_boarding":null,"level_id":null,"platform_code":null},"214S":{"stop_id":"214S","stop_code":null,"stop_name":"West Farms Sq-E Tremont Av","tts_stop_name":null,"stop_desc":null,"stop_lat":40.840295,"stop_lon":-73.880049,"zone_id":null,"stop_url":null,"location_type":0,"parent_station":"214","stop_timezone":null,"wheelchair_boarding":null,"level_id":null,"platform_code":null},"214N":{"stop_id":"214N","stop_code":null,"stop_name":"West Farms Sq-E Tremont Av","tts_stop_name":null,"stop_desc":null,"stop_lat":40.840295,"stop_lon":-73.880049,"zone_id":null,"stop_url":null,"location_type":0,"parent_station":"214","stop_timezone":null,"wheelchair_boarding":null,"level_id":null,"platform_code":null},"213S":{"stop_id":"213S","stop_code":null,"stop_name":"E 180 St","tts_stop_name":null,"stop_desc":null,"stop_lat":40.841894,"stop_lon":-73.873488,"zone_id":null,"stop_url":null,"location_type":0,"parent_station":"213","stop_timezone":null,"wheelchair_boarding":null,"level_id":null,"platform_code":null},"213N":{"stop_id":"213N","stop_code":null,"stop_name":"E 180 St","tts_stop_name":null,"stop_desc":null,"stop_lat":40.841894,"stop_lon":-73.873488,"zone_id":null,"stop_url":null,"location_type":0,"parent_station":"213","stop_timezone":null,"wheelchair_boarding":null,"level_id":null,"platform_code":null},"212S":{"stop_id":"212S","stop_code":null,"stop_name":"Bronx Park East","tts_stop_name":null,"stop_desc":null,"stop_lat":40.848828,"stop_lon":-73.868457,"zone_id":null,"stop_url":null,"location_type":0,"parent_station":"212","stop_timezone":null,"wheelchair_boarding":null,"level_id":null,"platform_code":null},"212N":{"stop_id":"212N","stop_code":null,"stop_name":"Bronx Park East","tts_stop_name":null,"stop_desc":null,"stop_lat":40.848828,"stop_lon":-73.868457,"zone_id":null,"stop_url":null,"location_type":0,"parent_station":"212","stop_timezone":null,"wheelchair_boarding":null,"level_id":null,"platform_code":null},"211S":{"stop_id":"211S","stop_code":null,"stop_name":"Pelham Pkwy","tts_stop_name":null,"stop_desc":null,"stop_lat":40.857192,"stop_lon":-73.867615,"zone_id":null,"stop_url":null,"location_type":0,"parent_station":"211","stop_timezone":null,"wheelchair_boarding":null,"level_id":null,"platform_code":null},"211N":{"stop_id":"211N","stop_code":null,"stop_name":"Pelham Pkwy","tts_stop_name":null,"stop_desc":null,"stop_lat":40.857192,"stop_lon":-73.867615,"zone_id":null,"stop_url":null,"location_type":0,"parent_station":"211","stop_timezone":null,"wheelchair_boarding":null,"level_id":null,"platform_code":null},"210S":{"stop_id":"210S","stop_code":null,"stop_name":"Allerton Av","tts_stop_name":null,"stop_desc":null,"stop_lat":40.865462,"stop_lon":-73.867352,"zone_id":null,"stop_url":null,"location_type":0,"parent_station":"210","stop_timezone":null,"wheelchair_boarding":null,"level_id":null,"platform_code":null},"210N":{"stop_id":"210N","stop_code":null,"stop_name":"Allerton Av","tts_stop_name":null,"stop_desc":null,"stop_lat":40.865462,"stop_lon":-73.867352,"zone_id":null,"stop_url":null,"location_type":0,"parent_station":"210","stop_timezone":null,"wheelchair_boarding":null,"level_id":null,"platform_code":null},"209S":{"stop_id":"209S","stop_code":null,"stop_name":"Burke Av","tts_stop_name":null,"stop_desc":null,"stop_lat":40.871356,"stop_lon":-73.867164,"zone_id":null,"stop_url":null,"location_type":0,"parent_station":"209","stop_timezone":null,"wheelchair_boarding":null,"level_id":null,"platform_code":null},"209N":{"stop_id":"209N","stop_code":null,"stop_name":"Burke Av","tts_stop_name":null,"stop_desc":null,"stop_lat":40.871356,"stop_lon":-73.867164,"zone_id":null,"stop_url":null,"location_type":0,"parent_station":"209","stop_timezone":null,"wheelchair_boarding":null,"level_id":null,"platform_code":null},"208S":{"stop_id":"208S","stop_code":null,"stop_name":"Gun Hill Rd","tts_stop_name":null,"stop_desc":null,"stop_lat":40.87785,"stop_lon":-73.866256,"zone_id":null,"stop_url":null,"location_type":0,"parent_station":"208","stop_timezone":null,"wheelchair_boarding":null,"level_id":null,"platform_code":null},"208N":{"stop_id":"208N","stop_code":null,"stop_name":"Gun Hill Rd","tts_stop_name":null,"stop_desc":null,"stop_lat":40.87785,"stop_lon":-73.866256,"zone_id":null,"stop_url":null,"location_type":0,"parent_station":"208","stop_timezone":null,"wheelchair_boarding":null,"level_id":null,"platform_code":null},"207S":{"stop_id":"207S","stop_code":null,"stop_name":"219 St","tts_stop_name":null,"stop_desc":null,"stop_lat":40.883895,"stop_lon":-73.862633,"zone_id":null,"stop_url":null,"location_type":0,"parent_station":"207","stop_timezone":null,"wheelchair_boarding":null,"level_id":null,"platform_code":null},"207N":{"stop_id":"207N","stop_code":null,"stop_name":"219 St","tts_stop_name":null,"stop_desc":null,"stop_lat":40.883895,"stop_lon":-73.862633,"zone_id":null,"stop_url":null,"location_type":0,"parent_station":"207","stop_timezone":null,"wheelchair_boarding":null,"level_id":null,"platform_code":null},"206S":{"stop_id":"206S","stop_code":null,"stop_name":"225 St","tts_stop_name":null,"stop_desc":null,"stop_lat":40.888022,"stop_lon":-73.860341,"zone_id":null,"stop_url":null,"location_type":0,"parent_station":"206","stop_timezone":null,"wheelchair_boarding":null,"level_id":null,"platform_code":null},"206N":{"stop_id":"206N","stop_code":null,"stop_name":"225 St","tts_stop_name":null,"stop_desc":null,"stop_lat":40.888022,"stop_lon":-73.860341,"zone_id":null,"stop_url":null,"location_type":0,"parent_station":"206","stop_timezone":null,"wheelchair_boarding":null,"level_id":null,"platform_code":null},"205S":{"stop_id":"205S","stop_code":null,"stop_name":"233 St","tts_stop_name":null,"stop_desc":null,"stop_lat":40.893193,"stop_lon":-73.857473,"zone_id":null,"stop_url":null,"location_type":0,"parent_station":"205","stop_timezone":null,"wheelchair_boarding":null,"level_id":null,"platform_code":null},"205N":{"stop_id":"205N","stop_code":null,"stop_name":"233 St","tts_stop_name":null,"stop_desc":null,"stop_lat":40.893193,"stop_lon":-73.857473,"zone_id":null,"stop_url":null,"location_type":0,"parent_station":"205","stop_timezone":null,"wheelchair_boarding":null,"level_id":null,"platform_code":null},"204S":{"stop_id":"204S","stop_code":null,"stop_name":"Nereid Av","tts_stop_name":null,"stop_desc":null,"stop_lat":40.898379,"stop_lon":-73.854376,"zone_id":null,"stop_url":null,"location_type":0,"parent_station":"204","stop_timezone":null,"wheelchair_boarding":null,"level_id":null,"platform_code":null},"204N":{"stop_id":"204N","stop_code":null,"stop_name":"Nereid Av","tts_stop_name":null,"stop_desc":null,"stop_lat":40.898379,"stop_lon":-73.854376,"zone_id":null,"stop_url":null,"location_type":0,"parent_station":"204","stop_timezone":null,"wheelchair_boarding":null,"level_id":null,"platform_code":null},"201S":{"stop_id":"201S","stop_code":null,"stop_name":"Wakefield-241 St","tts_stop_name":null,"stop_desc":null,"stop_lat":40.903125,"stop_lon":-73.85062,"zone_id":null,"stop_url":null,"location_type":0,"parent_station":"201","stop_timezone":null,"wheelchair_boarding":null,"level_id":null,"platform_code":null},"201N":{"stop_id":"201N","stop_code":null,"stop_name":"Wakefield-241 St","tts_stop_name":null,"stop_desc":null,"stop_lat":40.903125,"stop_lon":-73.85062,"zone_id":null,"stop_url":null,"location_type":0,"parent_station":"201","stop_timezone":null,"wheelchair_boarding":null,"level_id":null,"platform_code":null},"142S":{"stop_id":"142S","stop_code":null,"stop_name":"South Ferry","tts_stop_name":null,"stop_desc":null,"stop_lat":40.702068,"stop_lon":-74.013664,"zone_id":null,"stop_url":null,"location_type":0,"parent_station":"142","stop_timezone":null,"wheelchair_boarding":null,"level_id":null,"platform_code":null},"142N":{"stop_id":"142N","stop_code":null,"stop_name":"South Ferry","tts_stop_name":null,"stop_desc":null,"stop_lat":40.702068,"stop_lon":-74.013664,"zone_id":null,"stop_url":null,"location_type":0,"parent_station":"142","stop_timezone":null,"wheelchair_boarding":null,"level_id":null,"platform_code":null},"140S":{"stop_id":"140S","stop_code":null,"stop_name":"South Ferry Loop","tts_stop_name":null,"stop_desc":null,"stop_lat":40.701411,"stop_lon":-74.013205,"zone_id":null,"stop_url":null,"location_type":0,"parent_station":"140","stop_timezone":null,"wheelchair_boarding":null,"level_id":null,"platform_code":null},"140N":{"stop_id":"140N","stop_code":null,"stop_name":"South Ferry Loop","tts_stop_name":null,"stop_desc":null,"stop_lat":40.701411,"stop_lon":-74.013205,"zone_id":null,"stop_url":null,"location_type":0,"parent_station":"140","stop_timezone":null,"wheelchair_boarding":null,"level_id":null,"platform_code":null},"139S":{"stop_id":"139S","stop_code":null,"stop_name":"Rector St","tts_stop_name":null,"stop_desc":null,"stop_lat":40.707513,"stop_lon":-74.013783,"zone_id":null,"stop_url":null,"location_type":0,"parent_station":"139","stop_timezone":null,"wheelchair_boarding":null,"level_id":null,"platform_code":null},"139N":{"stop_id":"139N","stop_code":null,"stop_name":"Rector St","tts_stop_name":null,"stop_desc":null,"stop_lat":40.707513,"stop_lon":-74.013783,"zone_id":null,"stop_url":null,"location_type":0,"parent_station":"139","stop_timezone":null,"wheelchair_boarding":null,"level_id":null,"platform_code":null},"236S":{"stop_id":"236S","stop_code":null,"stop_name":"Bergen St","tts_stop_name":null,"stop_desc":null,"stop_lat":40.680829,"stop_lon":-73.975098,"zone_id":null,"stop_url":null,"location_type":0,"parent_station":"236","stop_timezone":null,"wheelchair_boarding":null,"level_id":null,"platform_code":null},"236N":{"stop_id":"236N","stop_code":null,"stop_name":"Bergen St","tts_stop_name":null,"stop_desc":null,"stop_lat":40.680829,"stop_lon":-73.975098,"zone_id":null,"stop_url":null,"location_type":0,"parent_station":"236","stop_timezone":null,"wheelchair_boarding":null,"level_id":null,"platform_code":null},"235S":{"stop_id":"235S","stop_code":null,"stop_name":"Atlantic Av-Barclays Ctr","tts_stop_name":null,"stop_desc":null,"stop_lat":40.684359,"stop_lon":-73.977666,"zone_id":null,"stop_url":null,"location_type":0,"parent_station":"235","stop_timezone":null,"wheelchair_boarding":null,"level_id":null,"platform_code":null},"235N":{"stop_id":"235N","stop_code":null,"stop_name":"Atlantic Av-Barclays Ctr","tts_stop_name":null,"stop_desc":null,"stop_lat":40.684359,"stop_lon":-73.977666,"zone_id":null,"stop_url":null,"location_type":0,"parent_station":"235","stop_timezone":null,"wheelchair_boarding":null,"level_id":null,"platform_code":null},"234S":{"stop_id":"234S","stop_code":null,"stop_name":"Nevins St","tts_stop_name":null,"stop_desc":null,"stop_lat":40.688246,"stop_lon":-73.980492,"zone_id":null,"stop_url":null,"location_type":0,"parent_station":"234","stop_timezone":null,"wheelchair_boarding":null,"level_id":null,"platform_code":null},"234N":{"stop_id":"234N","stop_code":null,"stop_name":"Nevins St","tts_stop_name":null,"stop_desc":null,"stop_lat":40.688246,"stop_lon":-73.980492,"zone_id":null,"stop_url":null,"location_type":0,"parent_station":"234","stop_timezone":null,"wheelchair_boarding":null,"level_id":null,"platform_code":null},"233S":{"stop_id":"233S","stop_code":null,"stop_name":"Hoyt St","tts_stop_name":null,"stop_desc":null,"stop_lat":40.690545,"stop_lon":-73.985065,"zone_id":null,"stop_url":null,"location_type":0,"parent_station":"233","stop_timezone":null,"wheelchair_boarding":null,"level_id":null,"platform_code":null},"233N":{"stop_id":"233N","stop_code":null,"stop_name":"Hoyt St","tts_stop_name":null,"stop_desc":null,"stop_lat":40.690545,"stop_lon":-73.985065,"zone_id":null,"stop_url":null,"location_type":0,"parent_station":"233","stop_timezone":null,"wheelchair_boarding":null,"level_id":null,"platform_code":null},"232S":{"stop_id":"232S","stop_code":null,"stop_name":"Borough Hall","tts_stop_name":null,"stop_desc":null,"stop_lat":40.693219,"stop_lon":-73.989998,"zone_id":null,"stop_url":null,"location_type":0,"parent_station":"232","stop_timezone":null,"wheelchair_boarding":null,"level_id":null,"platform_code":null},"232N":{"stop_id":"232N","stop_code":null,"stop_name":"Borough Hall","tts_stop_name":null,"stop_desc":null,"stop_lat":40.693219,"stop_lon":-73.989998,"zone_id":null,"stop_url":null,"location_type":0,"parent_station":"232","stop_timezone":null,"wheelchair_boarding":null,"level_id":null,"platform_code":null},"231S":{"stop_id":"231S","stop_code":null,"stop_name":"Clark St","tts_stop_name":null,"stop_desc":null,"stop_lat":40.697466,"stop_lon":-73.993086,"zone_id":null,"stop_url":null,"location_type":0,"parent_station":"231","stop_timezone":null,"wheelchair_boarding":null,"level_id":null,"platform_code":null},"231N":{"stop_id":"231N","stop_code":null,"stop_name":"Clark St","tts_stop_name":null,"stop_desc":null,"stop_lat":40.697466,"stop_lon":-73.993086,"zone_id":null,"stop_url":null,"location_type":0,"parent_station":"231","stop_timezone":null,"wheelchair_boarding":null,"level_id":null,"platform_code":null},"230S":{"stop_id":"230S","stop_code":null,"stop_name":"Wall St","tts_stop_name":null,"stop_desc":null,"stop_lat":40.706821,"stop_lon":-74.0091,"zone_id":null,"stop_url":null,"location_type":0,"parent_station":"230","stop_timezone":null,"wheelchair_boarding":null,"level_id":null,"platform_code":null},"230N":{"stop_id":"230N","stop_code":null,"stop_name":"Wall St","tts_stop_name":null,"stop_desc":null,"stop_lat":40.706821,"stop_lon":-74.0091,"zone_id":null,"stop_url":null,"location_type":0,"parent_station":"230","stop_timezone":null,"wheelchair_boarding":null,"level_id":null,"platform_code":null},"229S":{"stop_id":"229S","stop_code":null,"stop_name":"Fulton St","tts_stop_name":null,"stop_desc":null,"stop_lat":40.709416,"stop_lon":-74.006571,"zone_id":null,"stop_url":null,"location_type":0,"parent_station":"229","stop_timezone":null,"wheelchair_boarding":null,"level_id":null,"platform_code":null},"229N":{"stop_id":"229N","stop_code":null,"stop_name":"Fulton St","tts_stop_name":null,"stop_desc":null,"stop_lat":40.709416,"stop_lon":-74.006571,"zone_id":null,"stop_url":null,"location_type":0,"parent_station":"229","stop_timezone":null,"wheelchair_boarding":null,"level_id":null,"platform_code":null},"228S":{"stop_id":"228S","stop_code":null,"stop_name":"Park Place","tts_stop_name":null,"stop_desc":null,"stop_lat":40.713051,"stop_lon":-74.008811,"zone_id":null,"stop_url":null,"location_type":0,"parent_station":"228","stop_timezone":null,"wheelchair_boarding":null,"level_id":null,"platform_code":null},"228N":{"stop_id":"228N","stop_code":null,"stop_name":"Park Place","tts_stop_name":null,"stop_desc":null,"stop_lat":40.713051,"stop_lon":-74.008811,"zone_id":null,"stop_url":null,"location_type":0,"parent_station":"228","stop_timezone":null,"wheelchair_boarding":null,"level_id":null,"platform_code":null},"227S":{"stop_id":"227S","stop_code":null,"stop_name":"Central Park North (110 St)","tts_stop_name":null,"stop_desc":null,"stop_lat":40.799075,"stop_lon":-73.951822,"zone_id":null,"stop_url":null,"location_type":0,"parent_station":"227","stop_timezone":null,"wheelchair_boarding":null,"level_id":null,"platform_code":null},"227N":{"stop_id":"227N","stop_code":null,"stop_name":"Central Park North (110 St)","tts_stop_name":null,"stop_desc":null,"stop_lat":40.799075,"stop_lon":-73.951822,"zone_id":null,"stop_url":null,"location_type":0,"parent_station":"227","stop_timezone":null,"wheelchair_boarding":null,"level_id":null,"platform_code":null},"226S":{"stop_id":"226S","stop_code":null,"stop_name":"116 St","tts_stop_name":null,"stop_desc":null,"stop_lat":40.802098,"stop_lon":-73.949625,"zone_id":null,"stop_url":null,"location_type":0,"parent_station":"226","stop_timezone":null,"wheelchair_boarding":null,"level_id":null,"platform_code":null},"226N":{"stop_id":"226N","stop_code":null,"stop_name":"116 St","tts_stop_name":null,"stop_desc":null,"stop_lat":40.802098,"stop_lon":-73.949625,"zone_id":null,"stop_url":null,"location_type":0,"parent_station":"226","stop_timezone":null,"wheelchair_boarding":null,"level_id":null,"platform_code":null},"225S":{"stop_id":"225S","stop_code":null,"stop_name":"125 St","tts_stop_name":null,"stop_desc":null,"stop_lat":40.807754,"stop_lon":-73.945495,"zone_id":null,"stop_url":null,"location_type":0,"parent_station":"225","stop_timezone":null,"wheelchair_boarding":null,"level_id":null,"platform_code":null},"225N":{"stop_id":"225N","stop_code":null,"stop_name":"125 St","tts_stop_name":null,"stop_desc":null,"stop_lat":40.807754,"stop_lon":-73.945495,"zone_id":null,"stop_url":null,"location_type":0,"parent_station":"225","stop_timezone":null,"wheelchair_boarding":null,"level_id":null,"platform_code":null},"224S":{"stop_id":"224S","stop_code":null,"stop_name":"135 St","tts_stop_name":null,"stop_desc":null,"stop_lat":40.814229,"stop_lon":-73.94077,"zone_id":null,"stop_url":null,"location_type":0,"parent_station":"224","stop_timezone":null,"wheelchair_boarding":null,"level_id":null,"platform_code":null},"224N":{"stop_id":"224N","stop_code":null,"stop_name":"135 St","tts_stop_name":null,"stop_desc":null,"stop_lat":40.814229,"stop_lon":-73.94077,"zone_id":null,"stop_url":null,"location_type":0,"parent_station":"224","stop_timezone":null,"wheelchair_boarding":null,"level_id":null,"platform_code":null},"222S":{"stop_id":"222S","stop_code":null,"stop_name":"149 St-Grand Concourse","tts_stop_name":null,"stop_desc":null,"stop_lat":40.81841,"stop_lon":-73.926718,"zone_id":null,"stop_url":null,"location_type":0,"parent_station":"222","stop_timezone":null,"wheelchair_boarding":null,"level_id":null,"platform_code":null},"222N":{"stop_id":"222N","stop_code":null,"stop_name":"149 St-Grand Concourse","tts_stop_name":null,"stop_desc":null,"stop_lat":40.81841,"stop_lon":-73.926718,"zone_id":null,"stop_url":null,"location_type":0,"parent_station":"222","stop_timezone":null,"wheelchair_boarding":null,"level_id":null,"platform_code":null},"221S":{"stop_id":"221S","stop_code":null,"stop_name":"3 Av-149 St","tts_stop_name":null,"stop_desc":null,"stop_lat":40.816109,"stop_lon":-73.917757,"zone_id":null,"stop_url":null,"location_type":0,"parent_station":"221","stop_timezone":null,"wheelchair_boarding":null,"level_id":null,"platform_code":null},"221N":{"stop_id":"221N","stop_code":null,"stop_name":"3 Av-149 St","tts_stop_name":null,"stop_desc":null,"stop_lat":40.816109,"stop_lon":-73.917757,"zone_id":null,"stop_url":null,"location_type":0,"parent_station":"221","stop_timezone":null,"wheelchair_boarding":null,"level_id":null,"platform_code":null},"220S":{"stop_id":"220S","stop_code":null,"stop_name":"Jackson Av","tts_stop_name":null,"stop_desc":null,"stop_lat":40.81649,"stop_lon":-73.907807,"zone_id":null,"stop_url":null,"location_type":0,"parent_station":"220","stop_timezone":null,"wheelchair_boarding":null,"level_id":null,"platform_code":null},"220N":{"stop_id":"220N","stop_code":null,"stop_name":"Jackson Av","tts_stop_name":null,"stop_desc":null,"stop_lat":40.81649,"stop_lon":-73.907807,"zone_id":null,"stop_url":null,"location_type":0,"parent_station":"220","stop_timezone":null,"wheelchair_boarding":null,"level_id":null,"platform_code":null},"219S":{"stop_id":"219S","stop_code":null,"stop_name":"Prospect Av","tts_stop_name":null,"stop_desc":null,"stop_lat":40.819585,"stop_lon":-73.90177,"zone_id":null,"stop_url":null,"location_type":0,"parent_station":"219","stop_timezone":null,"wheelchair_boarding":null,"level_id":null,"platform_code":null},"219N":{"stop_id":"219N","stop_code":null,"stop_name":"Prospect Av","tts_stop_name":null,"stop_desc":null,"stop_lat":40.819585,"stop_lon":-73.90177,"zone_id":null,"stop_url":null,"location_type":0,"parent_station":"219","stop_timezone":null,"wheelchair_boarding":null,"level_id":null,"platform_code":null},"218S":{"stop_id":"218S","stop_code":null,"stop_name":"Intervale Av","tts_stop_name":null,"stop_desc":null,"stop_lat":40.822181,"stop_lon":-73.896736,"zone_id":null,"stop_url":null,"location_type":0,"parent_station":"218","stop_timezone":null,"wheelchair_boarding":null,"level_id":null,"platform_code":null},"218N":{"stop_id":"218N","stop_code":null,"stop_name":"Intervale Av","tts_stop_name":null,"stop_desc":null,"stop_lat":40.822181,"stop_lon":-73.896736,"zone_id":null,"stop_url":null,"location_type":0,"parent_station":"218","stop_timezone":null,"wheelchair_boarding":null,"level_id":null,"platform_code":null},"255S":{"stop_id":"255S","stop_code":null,"stop_name":"Pennsylvania Av","tts_stop_name":null,"stop_desc":null,"stop_lat":40.664635,"stop_lon":-73.894895,"zone_id":null,"stop_url":null,"location_type":0,"parent_station":"255","stop_timezone":null,"wheelchair_boarding":null,"level_id":null,"platform_code":null},"255N":{"stop_id":"255N","stop_code":null,"stop_name":"Pennsylvania Av","tts_stop_name":null,"stop_desc":null,"stop_lat":40.664635,"stop_lon":-73.894895,"zone_id":null,"stop_url":null,"location_type":0,"parent_station":"255","stop_timezone":null,"wheelchair_boarding":null,"level_id":null,"platform_code":null},"254S":{"stop_id":"254S","stop_code":null,"stop_name":"Junius St","tts_stop_name":null,"stop_desc":null,"stop_lat":40.663515,"stop_lon":-73.902447,"zone_id":null,"stop_url":null,"location_type":0,"parent_station":"254","stop_timezone":null,"wheelchair_boarding":null,"level_id":null,"platform_code":null},